$GPGGA,134757.85,4322.1711,N,00313.0606,W,0,,100.000,0.000,M,,M,0,*5E
$GPGSA,A,1,,,,,,,,,,,,,100.000,100.000,100.000*31
$GPGSV,5,1,19,5,46,184,,7,3,59,,8,,24,,13,74,347,*78
$GPGSV,5,2,19,15,46,301,,18,6,321,,20,50,280,,21,10,300,*41
$GPGSV,5,3,19,24,16,246,,28,47,76,,30,26,56,,67,42,138,*77
$GPGSV,5,4,19,68,77,334,,69,24,322,,77,40,35,,78,84,243,*44
$GPGSV,5,5,19,79,37,219,,85,3,340,,86,1,29,*7C
$GPRMC,134757.85,V,4322.1711,N,00313.0606,W,0.000,0.000,230118,,E,N*16
$GPGGA,134758.85,4322.1711,N,00313.0606,W,0,,100.000,0.000,M,,M,0,*51
$GPGSA,A,1,,,,,,,,,,,,,100.000,100.000,100.000*31
$GPGSV,5,1,19,5,46,184,,7,3,59,,8,,24,,13,74,347,*78
$GPGSV,5,2,19,15,46,301,,18,6,321,,20,50,280,,21,10,300,*41
$GPGSV,5,3,19,24,16,246,,28,47,76,,30,26,56,,67,42,138,*77
$GPGSV,5,4,19,68,77,334,,69,24,322,,77,40,35,,78,84,243,*44
$GPGSV,5,5,19,79,37,219,,85,3,340,,86,1,29,*7C
$GPRMC,134758.85,V,4322.1711,N,00313.0606,W,0.000,0.000,230118,,E,N*19
$GPGGA,134759.85,4322.1711,N,00313.0606,W,0,1,100.000,0.000,M,,M,0,*61
$GPGSA,A,1,5,,,,,,,,,,,,100.000,100.000,100.000*04
$GPGSV,5,1,19,5,45,184,41,7,3,59,,8,,24,,13,74,347,*7E
$GPGSV,5,2,19,15,46,301,,18,6,321,,20,50,280,,21,10,300,*41
$GPGSV,5,3,19,24,16,246,,28,47,76,,30,26,56,,67,42,138,*77
$GPGSV,5,4,19,68,77,334,,69,24,322,,77,40,35,,78,84,244,*43
$GPGSV,5,5,19,79,37,219,,85,3,340,,86,1,29,*7C
$GPRMC,134759.85,V,4322.1711,N,00313.0606,W,0.000,0.000,230118,,E,N*18
$GPGGA,134800.85,4322.1711,N,00313.0606,W,0,1,100.000,0.000,M,,M,0,*62
$GPGSA,A,1,5,,,,,,,,,,,,100.000,100.000,100.000*04
$GPGSV,5,1,19,5,45,184,41,7,3,59,,8,,24,,13,74,347,*7E
$GPGSV,5,2,19,15,46,301,,18,6,321,,20,50,280,,21,10,300,*41
$GPGSV,5,3,19,24,16,246,,28,47,76,,30,26,56,,67,42,138,*77
$GPGSV,5,4,19,68,77,334,,69,24,322,,77,40,35,,78,84,244,*43
$GPGSV,5,5,19,79,37,219,,85,3,340,,86,1,29,*7C
$GPRMC,134800.85,V,4322.1711,N,00313.0606,W,0.000,0.000,230118,,E,N*1B
$GPGGA,134801.85,4322.1711,N,00313.0606,W,0,2,100.000,0.000,M,,M,0,*60
$GPGSA,A,1,5,28,,,,,,,,,,,100.000,100.000,100.000*0E
$GPGSV,5,1,19,5,45,184,40,7,3,59,,8,,24,,13,74,347,*7F
$GPGSV,5,2,19,15,46,301,,18,6,321,,20,50,280,,21,10,300,*41
$GPGSV,5,3,19,24,16,246,28,28,47,76,43,30,26,56,,67,42,138,*7A
$GPGSV,5,4,19,68,77,334,,69,24,322,,77,40,35,,78,84,244,*43
$GPGSV,5,5,19,79,37,219,,85,3,340,,86,1,29,*7C
$GPRMC,134801.85,V,4322.1711,N,00313.0606,W,0.000,0.000,230118,,E,N*1A
$GPGGA,134802.85,4322.1711,N,00313.0606,W,0,4,100.000,-0.000,M,,M,0,*48
$GPGSA,A,1,5,24,28,78,,,,,,,,,100.000,100.000,100.000*07
$GPGSV,5,1,19,5,45,184,40,7,3,59,,8,,24,,13,74,347,*7F
$GPGSV,5,2,19,15,46,301,,18,6,321,,20,50,280,,21,10,300,*41
$GPGSV,5,3,19,24,16,246,34,28,47,76,42,30,26,56,,67,42,138,*76
$GPGSV,5,4,19,68,77,334,,69,24,322,,77,40,35,,78,84,244,37*47
$GPGSV,5,5,19,79,37,219,,85,3,340,,86,1,29,*7C
$GPRMC,134802.85,V,4322.1711,N,00313.0606,W,0.000,0.000,230118,,E,N*19
$GPGGA,134803.85,4322.1711,N,00313.0606,W,0,3,100.000,-0.000,M,,M,0,*4E
$GPGSA,A,1,5,24,28,,,,,,,,,,100.000,100.000,100.000*08
$GPGSV,5,1,19,5,45,184,40,7,3,59,,8,,24,,13,74,347,*7F
$GPGSV,5,2,19,15,46,301,,18,6,321,,20,50,280,,21,10,300,*41
$GPGSV,5,3,19,24,16,246,31,28,47,76,40,30,26,56,,67,42,138,*71
$GPGSV,5,4,19,68,77,334,,69,24,322,,77,40,35,,78,84,244,32*42
$GPGSV,5,5,19,79,37,219,,85,3,340,,86,1,29,*7C
$GPRMC,134803.85,V,4322.1711,N,00313.0606,W,0.000,0.000,230118,,E,N*18
$GPGGA,134804.85,4322.1711,N,00313.0606,W,0,3,100.000,-0.000,M,,M,0,*49
$GPGSA,A,1,5,24,28,,,,,,,,,,100.000,100.000,100.000*08
$GPGSV,5,1,19,5,45,184,36,7,3,59,,8,,24,,13,74,347,32*7F
$GPGSV,5,2,19,15,46,301,,18,6,321,,20,50,280,,21,10,300,*41
$GPGSV,5,3,19,24,16,246,30,28,47,76,38,30,26,56,23,67,42,138,*7E
$GPGSV,5,4,19,68,77,334,,69,24,322,,77,40,35,,78,84,244,35*45
$GPGSV,5,5,19,79,37,219,,85,3,340,,86,1,29,*7C
$GPRMC,134804.85,V,4322.1711,N,00313.0606,W,0.000,0.000,230118,,E,N*1F
$GPGGA,134805.85,4322.2478,N,00312.9035,W,1,5,1.992,225.802,M,,M,0,*6E
$GPGSA,A,3,5,13,24,28,78,,,,,,,,3.559,1.992,2.950*01
$GPGSV,5,1,19,5,45,184,38,7,3,59,,8,,24,,13,74,347,32*71
$GPGSV,5,2,19,15,46,301,,18,6,321,,20,50,280,,21,10,300,*41
$GPGSV,5,3,19,24,16,246,28,28,47,76,36,30,26,56,25,67,42,138,*7F
$GPGSV,5,4,19,68,77,334,,69,24,322,,77,40,35,,78,84,244,32*42
$GPGSV,5,5,19,79,37,219,,85,3,340,,86,1,29,*7C
$GPRMC,134805.85,A,4322.2478,N,00312.9035,W,1.407,0.000,230118,,E,A*05
$GPGGA,134806.85,4322.2266,N,00312.8698,W,1,5,5.317,104.358,M,,M,0,*63
$GPGSA,A,3,5,24,28,30,78,,,,,,,,9.671,5.317,8.078*09
$GPGSV,5,1,19,5,45,184,40,7,3,59,,8,,24,,13,74,347,27*7A
$GPGSV,5,2,19,15,46,301,,18,6,321,,20,50,280,,21,10,300,*41
$GPGSV,5,3,19,24,16,246,29,28,47,76,38,30,26,56,23,67,42,138,*76
$GPGSV,5,4,19,68,77,334,,69,24,322,,77,40,35,,78,84,244,33*43
$GPGSV,5,5,19,79,37,220,,85,3,340,,86,1,29,*76
$GPRMC,134806.85,A,4322.2266,N,00312.8698,W,1.459,0.000,230118,,E,A*04
$GPGGA,134807.85,4322.2326,N,00312.8850,W,1,6,1.700,146.592,M,,M,0,*6E
$GPGSA,A,3,5,13,24,28,30,78,,,,,,,2.619,1.700,1.992*0C
$GPGSV,5,1,19,5,45,184,37,7,3,59,,8,,24,,13,74,347,29*74
$GPGSV,5,2,19,15,46,301,,18,6,321,,20,50,280,,21,10,300,*41
$GPGSV,5,3,19,24,16,246,28,28,47,76,36,30,26,56,18,67,42,138,*71
$GPGSV,5,4,19,68,77,334,,69,24,322,,77,40,35,,78,84,244,29*48
$GPGSV,5,5,19,79,37,220,,85,3,340,,86,1,29,*76
$GPRMC,134807.85,A,4322.2326,N,00312.8850,W,2.483,0.000,230118,,E,A*0E
$GPGGA,134808.85,4322.2234,N,00312.8569,W,1,5,1.700,50.891,M,,M,0,*5F
$GPGSA,A,3,5,13,24,28,30,,,,,,,,2.619,1.700,1.992*03
$GPGSV,5,1,19,5,45,184,35,7,3,59,,8,,24,,13,74,347,27*78
$GPGSV,5,2,19,15,46,301,,18,6,321,,20,50,280,,21,10,300,*41
$GPGSV,5,3,19,24,16,247,25,28,47,76,35,30,26,56,23,67,42,138,*76
$GPGSV,5,4,19,68,77,334,,69,24,322,,77,40,35,,78,84,244,24*45
$GPGSV,5,5,19,79,37,220,,85,3,340,,86,1,29,*76
$GPRMC,134808.85,A,4322.2234,N,00312.8569,W,4.479,0.000,230118,,E,A*07
$GPGGA,134810.00,4322.2462,N,00312.8774,W,1,6,1.700,96.056,M,,M,0,*5A
$GPGSA,A,3,5,13,24,28,30,78,,,,,,,2.619,1.700,1.992*0C
$GPGSV,5,1,19,5,45,184,33,7,3,59,,8,,24,,13,74,347,28*71
$GPGSV,5,2,19,15,46,301,,18,6,321,,20,50,280,,21,10,300,*41
$GPGSV,5,3,19,24,16,247,25,28,47,76,35,30,26,56,23,67,42,138,*76
$GPGSV,5,4,19,68,77,334,,69,24,322,,77,40,35,,78,84,244,25*44
$GPGSV,5,5,19,79,37,220,,85,3,340,,86,1,29,*76
$GPRMC,134810.00,A,4322.2462,N,00312.8774,W,1.963,0.000,230118,,E,A*0B
$GPGGA,134811.00,4322.2393,N,00312.8816,W,1,6,1.672,100.388,M,,M,0,*63
$GPGSA,A,3,5,13,24,28,30,78,,,,,,,2.338,1.672,1.634*0D
$GPGSV,5,1,19,5,45,184,34,7,3,59,,8,,24,,13,74,347,27*79
$GPGSV,5,2,19,15,46,301,,18,6,321,,20,50,280,,21,10,300,*41
$GPGSV,5,3,19,24,16,247,25,28,47,76,35,30,26,56,26,67,42,138,*73
$GPGSV,5,4,19,68,77,334,,69,24,322,,77,40,35,,78,84,244,26*47
$GPGSV,5,5,19,79,37,220,,85,3,340,,86,1,29,*76
$GPRMC,134811.00,A,4322.2393,N,00312.8816,W,0.194,0.000,230118,,E,A*09
$GPGGA,134812.00,4322.2393,N,00312.8816,W,1,6,1.672,101.539,M,,M,0,*6D
$GPGSA,A,3,5,13,24,28,30,78,,,,,,,2.338,1.672,1.634*0D
$GPGSV,5,1,19,5,45,184,34,7,3,59,,8,,24,,13,74,347,34*7B
$GPGSV,5,2,19,15,46,301,,18,6,321,,20,50,280,,21,10,300,*41
$GPGSV,5,3,19,24,16,247,23,28,47,76,36,30,26,56,27,67,42,138,*77
$GPGSV,5,4,19,68,78,334,,69,24,322,,77,40,35,,78,84,245,32*4C
$GPGSV,5,5,19,79,37,220,,85,3,340,,86,1,29,*76
$GPRMC,134812.00,A,4322.2393,N,00312.8816,W,0.679,16.244,230118,,E,A*3B
$GPGGA,134813.00,4322.2375,N,00312.8824,W,1,6,1.672,101.539,M,,M,0,*65
$GPGSA,A,3,5,13,24,28,30,78,,,,,,,2.338,1.672,1.634*0D
$GPGSV,5,1,19,5,45,184,35,7,3,59,,8,,24,,13,74,347,33*7D
$GPGSV,5,2,19,15,46,301,,18,6,321,,20,50,280,,21,10,300,*41
$GPGSV,5,3,19,24,16,247,22,28,47,76,35,30,26,56,23,67,42,138,*71
$GPGSV,5,4,19,68,78,334,,69,24,322,,77,40,35,,78,84,245,34*4A
$GPGSV,5,5,19,79,37,220,,85,3,340,,86,1,29,*76
$GPRMC,134813.00,A,4322.2375,N,00312.8824,W,0.000,0.000,230118,,E,A*0E
$GPGGA,134814.00,4322.2375,N,00312.8824,W,1,6,1.672,101.539,M,,M,0,*62
$GPGSA,A,3,5,13,24,28,30,78,,,,,,,2.338,1.672,1.634*0D
$GPGSV,5,1,19,5,45,184,34,7,3,59,,8,,24,,13,74,347,31*7E
$GPGSV,5,2,19,15,46,301,,18,6,321,,20,50,280,,21,10,300,*41
$GPGSV,5,3,19,24,16,247,25,28,47,76,35,30,26,56,24,67,42,138,34*76
$GPGSV,5,4,19,68,78,334,,69,24,322,,77,40,35,,78,84,245,31*4F
$GPGSV,5,5,19,79,37,220,,85,3,340,,86,1,29,*76
$GPRMC,134814.00,A,4322.2375,N,00312.8824,W,0.000,0.000,230118,,E,A*09
$GPGGA,134815.00,4322.2375,N,00312.8824,W,1,6,1.672,101.539,M,,M,0,*63
$GPGSA,A,3,5,13,24,28,30,78,,,,,,,2.338,1.672,1.634*0D
$GPGSV,5,1,19,5,45,184,33,7,3,59,,8,,24,,13,74,347,25*7C
$GPGSV,5,2,19,15,46,301,,18,6,321,,20,50,280,,21,10,300,*41
$GPGSV,5,3,19,24,16,247,20,28,47,76,34,30,26,56,26,67,42,138,29*7C
$GPGSV,5,4,19,68,78,334,,69,24,322,,77,40,35,,78,84,245,29*46
$GPGSV,5,5,19,79,37,220,,85,3,340,,86,1,29,*76
$GPRMC,134815.00,A,4322.2375,N,00312.8824,W,0.000,0.000,230118,,E,A*08
$GPGGA,134816.00,4322.2375,N,00312.8824,W,1,7,1.295,101.539,M,,M,0,*6C
$GPGSA,A,3,5,13,24,28,30,67,78,,,,,,2.083,1.295,1.631*07
$GPGSV,5,1,19,5,45,184,33,7,3,59,,8,,24,,13,74,347,35*7D
$GPGSV,5,2,19,15,46,301,,18,6,321,,20,50,280,,21,10,300,*41
$GPGSV,5,3,19,24,16,247,21,28,47,76,36,30,26,56,24,67,42,138,32*77
$GPGSV,5,4,19,68,78,334,,69,24,322,,77,40,35,,78,84,245,26*49
$GPGSV,5,5,19,79,37,220,,85,3,340,,86,1,29,*76
$GPRMC,134816.00,A,4322.2375,N,00312.8824,W,0.000,0.000,230118,,E,A*0B
$GPGGA,134817.00,4322.2368,N,00312.8816,W,1,6,1.333,101.209,M,,M,0,*68
$GPGSA,A,3,5,13,24,28,30,67,,,,,,,2.395,1.333,1.990*05
$GPGSV,5,1,20,4,5,,,5,45,184,30,7,3,59,,8,,24,*42
$GPGSV,5,2,20,13,74,347,31,15,46,301,,18,6,321,,20,50,280,*49
$GPGSV,5,3,20,21,10,300,,24,16,247,19,28,47,76,36,30,26,56,23*7C
$GPGSV,5,4,20,67,42,138,33,68,78,334,,69,24,322,,77,40,35,*4A
$GPGSV,5,5,20,78,84,245,24,79,37,220,,85,3,340,,86,1,29,*4A
$GPRMC,134817.00,A,4322.2368,N,00312.8816,W,1.253,0.000,230118,,E,A*02
$GPGGA,134818.00,4322.2359,N,00312.8828,W,1,7,1.295,102.804,M,,M,0,*60
$GPGSA,A,3,5,13,24,28,30,67,78,,,,,,2.083,1.295,1.631*07
$GPGSV,5,1,20,4,5,,,5,45,184,36,7,3,59,,8,,23,*43
$GPGSV,5,2,20,13,74,348,35,15,46,301,,18,6,321,,20,50,280,*42
$GPGSV,5,3,20,21,10,300,,24,16,247,19,28,47,76,33,30,26,56,25*7F
$GPGSV,5,4,20,67,42,138,33,68,78,334,,69,24,322,,77,40,35,*4A
$GPGSV,5,5,20,78,84,245,29,79,37,220,,85,3,340,,86,1,29,*47
$GPRMC,134818.00,A,4322.2359,N,00312.8828,W,1.267,0.000,230118,,E,A*05
$GPGGA,134819.00,4322.2372,N,00312.8855,W,1,8,1.102,100.541,M,,M,0,*6E
$GPGSA,A,3,5,13,15,24,28,30,67,78,,,,,1.964,1.102,1.626*0B
$GPGSV,5,1,20,4,5,,,5,45,184,36,7,3,59,,8,,23,*43
$GPGSV,5,2,20,13,74,348,34,15,46,301,20,18,6,321,,20,50,280,*41
$GPGSV,5,3,20,21,10,300,,24,16,247,20,28,47,76,37,30,26,56,30*75
$GPGSV,5,4,20,67,42,138,37,68,78,334,,69,24,322,,77,40,35,*4E
$GPGSV,5,5,20,78,84,245,27,79,37,220,,85,3,340,,86,1,29,*49
$GPRMC,134819.00,A,4322.2372,N,00312.8855,W,0.000,0.000,230118,,E,A*05
$GPGGA,134820.00,4322.2376,N,00312.8853,W,1,8,1.102,100.865,M,,M,0,*6D
$GPGSA,A,3,5,13,15,24,28,30,67,78,,,,,1.964,1.102,1.626*0B
$GPGSV,5,1,20,4,5,,,5,45,184,38,7,3,59,,8,,23,*4D
$GPGSV,5,2,20,13,74,348,33,15,46,301,24,18,6,321,,20,50,280,*42
$GPGSV,5,3,20,21,10,300,,24,16,247,25,28,47,76,42,30,26,56,34*76
$GPGSV,5,4,20,67,42,138,36,68,78,334,,69,24,322,,77,40,35,*4F
$GPGSV,5,5,20,78,84,245,30,79,37,220,,85,3,340,,86,1,29,*4F
$GPRMC,134820.00,A,4322.2376,N,00312.8853,W,0.000,0.000,230118,,E,A*0D
$GPGGA,134821.00,4322.2376,N,00312.8853,W,1,8,1.102,100.865,M,,M,0,*6C
$GPGSA,A,3,5,13,15,24,28,30,67,78,,,,,1.964,1.102,1.626*0B
$GPGSV,5,1,20,4,5,,,5,45,184,36,7,3,59,,8,,23,*43
$GPGSV,5,2,20,13,74,348,37,15,46,301,27,18,6,321,,20,50,280,*45
$GPGSV,5,3,20,21,10,300,,24,16,247,26,28,47,76,44,30,26,56,32*75
$GPGSV,5,4,20,67,42,138,37,68,78,334,,69,24,322,,77,40,35,*4E
$GPGSV,5,5,20,78,84,245,31,79,37,220,,85,3,340,,86,1,29,*4E
$GPRMC,134821.00,A,4322.2376,N,00312.8853,W,0.000,0.000,230118,,E,A*0C
$GPGGA,134822.00,4322.2376,N,00312.8853,W,1,8,1.102,100.865,M,,M,0,*6F
$GPGSA,A,3,5,13,15,24,28,30,67,78,,,,,1.964,1.102,1.626*0B
$GPGSV,5,1,20,4,5,,,5,45,184,38,7,3,59,,8,,23,*4D
$GPGSV,5,2,20,13,74,348,38,15,46,301,24,18,6,321,,20,50,280,*49
$GPGSV,5,3,20,21,10,300,,24,16,247,24,28,47,76,44,30,26,56,28*7C
$GPGSV,5,4,20,67,42,138,38,68,78,334,,69,24,322,,77,40,35,*41
$GPGSV,5,5,20,78,84,245,31,79,37,220,,85,3,340,,86,1,29,*4E
$GPRMC,134822.00,A,4322.2376,N,00312.8853,W,0.000,0.000,230118,,E,A*0F
$GPGGA,134823.00,4322.2376,N,00312.8853,W,1,8,1.102,100.865,M,,M,0,*6E
$GPGSA,A,3,5,13,15,24,28,30,67,78,,,,,1.964,1.102,1.626*0B
$GPGSV,5,1,20,4,5,,,5,45,184,39,7,3,59,,8,,23,*4C
$GPGSV,5,2,20,13,74,348,37,15,46,301,21,18,6,321,,20,50,280,*43
$GPGSV,5,3,20,21,10,300,,24,16,247,22,28,47,76,41,30,26,56,29*7E
$GPGSV,5,4,20,67,42,138,33,68,78,334,,69,24,322,,77,40,35,*4A
$GPGSV,5,5,20,78,84,245,33,79,37,220,,85,3,340,,86,1,29,*4C
$GPRMC,134823.00,A,4322.2376,N,00312.8853,W,0.000,0.000,230118,,E,A*0E
$GPGGA,134824.00,4322.2376,N,00312.8853,W,1,8,1.102,100.865,M,,M,0,*69
$GPGSA,A,3,5,13,15,24,28,30,67,78,,,,,1.964,1.102,1.626*0B
$GPGSV,5,1,20,4,5,,,5,45,184,44,7,3,59,,8,,23,*46
$GPGSV,5,2,20,13,74,348,41,15,46,301,23,18,6,321,,20,50,280,*40
$GPGSV,5,3,20,21,10,300,,24,16,247,23,28,47,76,36,30,26,56,33*74
$GPGSV,5,4,20,67,42,138,34,68,78,334,,69,24,322,,77,40,35,*4D
$GPGSV,5,5,20,78,84,246,32,79,37,220,,85,3,340,,86,1,29,*4E
$GPRMC,134824.00,A,4322.2376,N,00312.8853,W,0.000,0.000,230118,,E,A*09
$GPGGA,134825.00,4322.2376,N,00312.8853,W,1,8,1.102,100.865,M,,M,0,*68
$GPGSA,A,3,5,13,15,24,28,30,67,78,,,,,1.964,1.102,1.626*0B
$GPGSV,5,1,20,4,5,,,5,45,184,41,7,3,59,,8,,23,*43
$GPGSV,5,2,20,13,74,348,41,15,46,301,26,18,6,321,,20,50,280,*45
$GPGSV,5,3,20,21,10,300,,24,16,247,18,28,47,76,35,30,26,56,32*7E
$GPGSV,5,4,20,67,42,138,38,68,78,334,,69,24,322,,77,39,35,*4F
$GPGSV,5,5,20,78,84,246,31,79,37,220,,85,3,340,,86,1,29,*4D
$GPRMC,134825.00,A,4322.2376,N,00312.8853,W,0.000,0.000,230118,,E,A*08
$GPGGA,134826.00,4322.2376,N,00312.8853,W,1,8,1.102,100.865,M,,M,0,*6B
$GPGSA,A,3,5,13,15,24,28,30,67,78,,,,,1.964,1.102,1.626*0B
$GPGSV,5,1,20,4,5,,,5,45,184,38,7,3,59,,8,,23,*4D
$GPGSV,5,2,20,13,74,348,37,15,47,301,26,18,6,321,,20,50,280,*45
$GPGSV,5,3,20,21,10,300,,24,16,247,24,28,47,76,41,30,26,56,30*70
$GPGSV,5,4,20,67,42,138,37,68,78,334,,69,24,322,,77,39,35,*40
$GPGSV,5,5,20,78,84,246,29,79,37,220,,85,3,340,,86,1,29,*44
$GPRMC,134826.00,A,4322.2376,N,00312.8853,W,0.000,0.000,230118,,E,A*0B
$GPGGA,134827.00,4322.2376,N,00312.8853,W,1,8,1.102,100.865,M,,M,0,*6A
$GPGSA,A,3,5,13,15,24,28,30,67,78,,,,,1.964,1.102,1.626*0B
$GPGSV,5,1,19,5,45,184,36,7,3,59,,8,,23,,13,74,348,34*71
$GPGSV,5,2,19,15,47,301,21,18,6,321,,20,50,280,,21,10,300,*43
$GPGSV,5,3,19,24,16,247,21,28,47,76,35,30,26,56,27,67,42,138,34*71
$GPGSV,5,4,19,68,78,334,,69,24,322,,77,39,35,,78,84,246,29*4B
$GPGSV,5,5,19,79,37,220,,85,3,340,,86,1,29,*76
$GPRMC,134827.00,A,4322.2376,N,00312.8853,W,0.000,0.000,230118,,E,A*0A
$GPGGA,134828.00,4322.2377,N,00312.8851,W,1,8,1.102,102.070,M,,M,0,*68
$GPGSA,A,3,5,13,15,24,28,30,67,78,,,,,1.964,1.102,1.626*0B
$GPGSV,5,1,19,5,45,184,35,7,3,59,,8,,23,,13,74,348,33*75
$GPGSV,5,2,19,15,47,301,24,18,6,321,,20,50,280,,21,10,300,*46
$GPGSV,5,3,19,24,16,247,23,28,47,76,38,30,26,56,26,67,42,138,38*73
$GPGSV,5,4,19,68,78,334,,69,24,322,,77,39,35,,78,84,246,28*4A
$GPGSV,5,5,19,79,37,220,,85,3,340,,86,1,29,*76
$GPRMC,134828.00,A,4322.2377,N,00312.8851,W,1.317,0.000,230118,,E,A*02
$GPGGA,134829.00,4322.2380,N,00312.8856,W,1,8,1.102,102.000,M,,M,0,*61
$GPGSA,A,3,5,13,15,24,28,30,67,78,,,,,1.964,1.102,1.626*0B
$GPGSV,5,1,19,5,45,184,38,7,3,59,,8,,23,,13,74,348,33*78
$GPGSV,5,2,19,15,47,301,24,18,6,321,,20,50,280,,21,10,300,*46
$GPGSV,5,3,19,24,16,247,21,28,47,76,38,30,26,56,24,67,42,138,43*7F
$GPGSV,5,4,19,68,78,334,,69,24,322,,77,39,35,,78,84,246,26*44
$GPGSV,5,5,19,79,37,220,,85,3,340,,86,1,29,*76
$GPRMC,134829.00,A,4322.2380,N,00312.8856,W,1.817,0.000,230118,,E,A*07
$GPGGA,134830.00,4322.2377,N,00312.8845,W,1,8,1.102,103.589,M,,M,0,*66
$GPGSA,A,3,5,13,15,24,28,30,67,78,,,,,1.964,1.102,1.626*0B
$GPGSV,5,1,19,5,45,184,37,7,3,59,,8,,23,,13,74,348,30*74
$GPGSV,5,2,19,15,47,301,23,18,6,321,,20,50,280,,21,10,300,*41
$GPGSV,5,3,19,24,16,247,27,28,47,76,42,30,26,56,26,67,42,138,40*75
$GPGSV,5,4,19,68,78,334,,69,24,322,,77,39,35,,78,84,246,27*45
$GPGSV,5,5,19,79,37,220,,85,3,340,,86,1,29,*76
$GPRMC,134830.00,A,4322.2377,N,00312.8845,W,4.049,191.849,230118,,E,A*0F
$GPGGA,134831.00,4322.2367,N,00312.8849,W,1,8,1.102,102.729,M,,M,0,*63
$GPGSA,A,3,5,13,15,24,28,30,67,78,,,,,1.964,1.102,1.626*0B
$GPGSV,5,1,19,5,45,184,35,7,3,59,,8,,23,,13,74,348,31*77
$GPGSV,5,2,19,15,47,301,20,18,6,321,,20,50,280,,21,10,300,*42
$GPGSV,5,3,19,24,16,247,27,28,47,76,38,30,26,56,28,67,42,138,38*79
$GPGSV,5,4,19,68,78,334,,69,24,322,,77,39,35,,78,84,246,25*47
$GPGSV,5,5,19,79,37,220,,85,3,340,,86,1,29,*76
$GPRMC,134831.00,A,4322.2367,N,00312.8849,W,5.185,189.818,230118,,E,A*0E
$GPGGA,134832.00,4322.2345,N,00312.8849,W,1,8,1.102,102.500,M,,M,0,*69
$GPGSA,A,3,5,13,15,24,28,30,67,78,,,,,1.964,1.102,1.626*0B
$GPGSV,5,1,19,5,45,184,37,7,3,59,,8,,23,,13,74,348,29*7C
$GPGSV,5,2,19,15,47,301,21,18,6,321,,20,50,280,,21,10,300,*43
$GPGSV,5,3,19,24,16,247,27,28,47,76,38,30,26,56,29,67,41,138,36*75
$GPGSV,5,4,19,68,78,334,,69,24,322,,77,39,35,,78,84,246,29*4B
$GPGSV,5,5,19,79,37,220,,85,3,340,,86,1,29,*76
$GPRMC,134832.00,A,4322.2345,N,00312.8849,W,7.410,186.106,230118,,E,A*0F
$GPGGA,134833.00,4322.2321,N,00312.8845,W,1,8,1.102,101.608,M,,M,0,*6E
$GPGSA,A,3,5,13,15,24,28,30,67,78,,,,,1.964,1.102,1.626*0B
$GPGSV,5,1,19,5,45,184,35,7,3,59,,8,,23,,13,74,348,34*72
$GPGSV,5,2,19,15,47,301,22,18,6,321,,20,50,280,,21,10,300,*40
$GPGSV,5,3,19,24,16,247,27,28,47,76,43,30,26,56,27,67,41,138,32*73
$GPGSV,5,4,19,68,78,333,,69,24,322,,77,39,35,34,78,84,246,27*45
$GPGSV,5,5,19,79,37,220,33,85,3,340,,86,1,29,*76
$GPRMC,134833.00,A,4322.2321,N,00312.8845,W,8.786,187.344,230118,,E,A*06
$GPGGA,134834.00,4322.2287,N,00312.8845,W,1,10,0.985,100.788,M,,M,0,*53
$GPGSA,A,3,5,13,15,24,28,30,67,77,78,79,,,1.883,0.985,1.605*0A
$GPGSV,5,1,19,5,45,184,32,7,3,59,,8,,23,,13,74,348,36*77
$GPGSV,5,2,19,15,47,301,23,18,6,321,,20,50,280,,21,10,300,*41
$GPGSV,5,3,19,24,16,247,28,28,47,76,44,30,26,56,26,67,41,138,38*70
$GPGSV,5,4,19,68,78,333,,69,24,322,,77,39,35,35,78,84,246,25*46
$GPGSV,5,5,19,79,37,220,34,85,3,340,,86,1,29,*71
$GPRMC,134834.00,A,4322.2287,N,00312.8845,W,11.751,192.535,230118,,E,A*3A
$GPGGA,134835.00,4322.2254,N,00312.8868,W,1,10,0.985,95.558,M,,M,0,*61
$GPGSA,A,3,5,13,15,24,28,30,67,77,78,79,,,1.883,0.985,1.605*0A
$GPGSV,5,1,19,5,45,184,31,7,3,59,,8,,23,,13,74,348,33*71
$GPGSV,5,2,19,15,47,301,28,18,6,321,,20,50,280,,21,10,300,*4A
$GPGSV,5,3,19,24,16,247,33,28,47,76,39,30,26,56,29,67,41,138,35*72
$GPGSV,5,4,19,68,78,333,32,69,24,322,,77,39,35,34,78,84,246,26*45
$GPGSV,5,5,19,79,37,220,38,85,3,340,,86,1,29,*7D
$GPRMC,134835.00,A,4322.2254,N,00312.8868,W,12.268,196.004,230118,,E,A*35
$GPGGA,134836.00,4322.2214,N,00312.8909,W,1,11,0.935,82.844,M,,M,0,*6C
$GPGSA,A,3,5,13,15,20,24,28,30,67,77,78,79,,1.841,0.935,1.586*05
$GPGSV,5,1,19,5,45,184,33,7,3,59,,8,,23,,13,74,348,31*71
$GPGSV,5,2,19,15,47,301,41,18,6,321,,20,50,280,41,21,10,300,*40
$GPGSV,5,3,19,24,16,247,40,28,47,76,35,30,26,56,28,67,41,138,30*7E
$GPGSV,5,4,19,68,78,333,23,69,24,322,,77,39,35,33,78,84,247,29*4C
$GPGSV,5,5,19,79,37,220,36,85,3,340,,86,1,29,*73
$GPRMC,134836.00,A,4322.2214,N,00312.8909,W,14.054,196.406,230118,,E,A*39
$GPGGA,134837.00,4322.2169,N,00312.8915,W,1,10,0.937,75.555,M,,M,0,*6F
$GPGSA,A,3,5,13,15,20,24,28,30,67,77,79,,,2.073,0.937,1.849*0C
$GPGSV,5,1,20,4,5,,,5,45,184,27,7,3,59,,8,,23,*43
$GPGSV,5,2,20,13,74,348,25,15,47,301,39,18,6,321,,20,50,280,40*4C
$GPGSV,5,3,20,21,10,300,,24,16,247,36,28,47,76,35,30,26,56,22*73
$GPGSV,5,4,20,67,41,138,25,68,78,333,18,69,24,322,,77,39,35,27*4B
$GPGSV,5,5,20,78,84,247,23,79,37,220,30,85,3,340,,86,1,29,*4C
$GPRMC,134837.00,A,4322.2169,N,00312.8915,W,14.457,194.105,230118,,E,A*3F
$GPGGA,134838.00,4322.2129,N,00312.8935,W,1,8,1.158,73.396,M,,M,0,*50
$GPGSA,A,3,5,13,15,20,24,28,30,79,,,,,2.202,1.158,1.872*01
$GPGSV,5,1,20,4,5,,,5,45,184,26,7,3,59,,8,,23,*42
$GPGSV,5,2,20,13,74,348,21,15,47,301,35,18,6,321,,20,50,280,36*45
$GPGSV,5,3,20,21,10,300,,24,16,247,31,28,47,76,29,30,26,56,14*7C
$GPGSV,5,4,20,67,41,138,20,68,78,333,17,69,24,322,,77,39,35,23*45
$GPGSV,5,5,20,78,84,247,21,79,37,220,25,85,3,340,,86,1,29,*4A
$GPRMC,134838.00,A,4322.2129,N,00312.8935,W,15.156,194.486,230118,,E,A*3D
$GPGGA,134839.00,4322.2086,N,00312.8951,W,1,6,1.596,71.907,M,,M,0,*5F
$GPGSA,A,3,5,13,15,20,24,28,,,,,,,3.188,1.596,2.760*05
$GPGSV,5,1,20,4,5,,,5,45,184,20,7,3,59,,8,,23,*44
$GPGSV,5,2,20,13,74,348,21,15,47,301,34,18,6,321,,20,50,280,34*46
$GPGSV,5,3,20,21,10,300,,24,16,247,28,28,47,76,23,30,26,56,12*78
$GPGSV,5,4,20,67,41,138,18,68,78,333,17,69,24,322,,77,39,35,18*46
$GPGSV,5,5,20,78,84,247,21,79,37,220,22,85,3,340,,86,1,29,*4D
$GPRMC,134839.00,A,4322.2086,N,00312.8951,W,15.952,194.720,230118,,E,A*39
$GPGGA,134840.00,4322.2042,N,00312.8970,W,1,7,1.254,70.803,M,,M,0,*56
$GPGSA,A,3,5,13,15,20,24,28,30,,,,,,2.254,1.254,1.873*02
$GPGSV,5,1,20,4,5,,,5,45,184,15,7,3,59,,8,,23,*42
$GPGSV,5,2,20,13,74,348,20,15,47,301,33,18,6,321,,20,50,280,35*41
$GPGSV,5,3,20,21,10,300,,24,16,247,27,28,47,76,22,30,26,56,16*72
$GPGSV,5,4,20,67,41,138,19,68,78,333,14,69,24,322,,77,39,35,18*44
$GPGSV,5,5,20,78,84,247,17,79,37,220,22,85,3,340,,86,1,29,*48
$GPRMC,134840.00,A,4322.2042,N,00312.8970,W,16.515,197.669,230118,,E,A*3F
$GPGGA,134841.00,4322.1999,N,00312.8986,W,1,7,1.254,70.012,M,,M,0,*5A
$GPGSA,A,3,5,13,15,20,24,28,30,,,,,,2.254,1.254,1.873*02
$GPGSV,5,1,20,4,5,,,5,45,184,15,7,3,59,,8,,23,*42
$GPGSV,5,2,20,13,74,348,15,15,47,301,35,18,6,321,,20,50,280,34*40
$GPGSV,5,3,20,21,10,300,,24,16,247,18,28,47,76,23,30,26,56,14*7D
$GPGSV,5,4,20,67,41,138,18,68,78,333,17,69,25,322,,77,39,35,21*4D
$GPGSV,5,5,20,78,84,247,19,79,37,220,18,85,3,340,,86,1,29,*4F
$GPRMC,134841.00,A,4322.1999,N,00312.8986,W,16.464,195.046,230118,,E,A*35
$GPGGA,134842.00,4322.1956,N,00312.9003,W,1,6,1.402,69.330,M,,M,0,*50
$GPGSA,A,3,5,13,15,20,28,30,,,,,,,3.461,1.402,3.164*0D
$GPGSV,5,1,20,4,5,,,5,45,184,17,7,3,59,,8,,23,*40
$GPGSV,5,2,20,13,74,348,14,15,47,301,35,18,6,321,,20,50,280,35*40
$GPGSV,5,3,20,21,10,300,,24,16,247,12,28,47,76,24,30,26,56,19*7D
$GPGSV,5,4,20,67,41,138,17,68,78,333,17,69,25,322,,77,39,35,22*41
$GPGSV,5,5,20,78,84,247,17,79,37,220,20,85,3,340,,86,1,29,*4A
$GPRMC,134842.00,A,4322.1956,N,00312.9003,W,16.461,194.545,230118,,E,A*32
$GPGGA,134843.00,4322.1912,N,00312.9018,W,1,6,2.356,68.438,M,,M,0,*50
$GPGSA,A,3,13,15,20,24,28,30,,,,,,,3.183,2.356,2.140*35
$GPGSV,5,1,20,4,5,,,5,45,184,12,7,3,59,,8,,23,*45
$GPGSV,5,2,20,13,74,348,17,15,47,301,33,18,6,321,,20,50,280,28*49
$GPGSV,5,3,20,21,10,300,,24,16,247,13,28,47,76,24,30,26,56,17*72
$GPGSV,5,4,20,67,41,138,18,68,78,333,17,69,25,322,,77,39,35,21*4D
$GPGSV,5,5,20,78,84,247,19,79,37,220,19,85,3,340,,86,1,29,*4E
$GPRMC,134843.00,A,4322.1912,N,00312.9018,W,16.515,194.149,230118,,E,A*33
$GPGGA,134844.00,4322.1870,N,00312.9030,W,1,7,1.254,67.583,M,,M,0,*57
$GPGSA,A,3,5,13,15,20,24,28,30,,,,,,2.254,1.254,1.873*02
$GPGSV,5,1,20,4,5,,,5,45,184,15,7,3,59,,8,,23,*42
$GPGSV,5,2,20,13,74,348,22,15,47,301,27,18,6,321,,20,50,280,23*41
$GPGSV,5,3,20,21,10,299,,24,16,247,14,28,47,76,23,30,26,56,17*73
$GPGSV,5,4,20,67,41,138,18,68,78,333,,69,25,322,,77,39,35,21*4B
$GPGSV,5,5,20,78,84,247,18,79,37,220,,85,3,340,,86,1,29,*47
$GPRMC,134844.00,A,4322.1870,N,00312.9030,W,16.299,193.713,230118,,E,A*36
$GPGGA,134845.00,4322.1827,N,00312.9048,W,1,6,1.402,67.133,M,,M,0,*50
$GPGSA,A,3,5,13,15,20,28,30,,,,,,,3.459,1.402,3.162*00
$GPGSV,5,1,20,4,5,,,5,45,184,17,7,3,59,,8,,23,*40
$GPGSV,5,2,20,13,74,348,20,15,47,301,24,18,6,321,,20,50,280,24*47
$GPGSV,5,3,20,21,10,299,,24,16,247,12,28,47,76,23,30,26,56,25*74
$GPGSV,5,4,20,67,41,138,16,68,78,333,,69,25,322,,77,39,35,19*4E
$GPGSV,5,5,20,78,84,247,19,79,37,220,,85,3,340,,86,1,29,*46
$GPRMC,134845.00,A,4322.1827,N,00312.9048,W,16.232,194.721,230118,,E,A*3D
$GPGGA,134846.00,4322.1792,N,00312.9063,W,1,6,1.402,66.640,M,,M,0,*59
$GPGSA,A,3,5,13,15,20,28,30,,,,,,,3.459,1.402,3.162*00
$GPGSV,5,1,20,4,5,,,5,45,184,20,7,3,59,,8,,23,*44
$GPGSV,5,2,20,13,74,348,22,15,47,301,21,18,6,321,,20,50,280,21*45
$GPGSV,5,3,20,21,10,299,,24,16,247,12,28,47,76,23,30,26,56,27*76
$GPGSV,5,4,20,67,41,138,17,68,78,333,,69,25,322,,77,39,35,20*45
$GPGSV,5,5,20,78,84,247,18,79,37,220,,85,3,340,,86,1,29,*47
$GPRMC,134846.00,A,4322.1792,N,00312.9063,W,15.529,194.992,230118,,E,A*3E
$GPGGA,134847.00,4322.1761,N,00312.9075,W,1,7,1.254,65.710,M,,M,0,*50
$GPGSA,A,3,5,13,15,20,24,28,30,,,,,,2.254,1.254,1.873*02
$GPGSV,5,1,19,5,45,184,20,7,3,59,,8,,23,,13,74,348,19*79
$GPGSV,5,2,19,15,47,301,20,18,6,321,,20,50,280,22,21,10,299,*43
$GPGSV,5,3,19,24,16,247,14,28,47,76,23,30,26,56,27,67,41,138,*74
$GPGSV,5,4,19,68,78,333,,69,25,322,,77,39,35,20,78,84,248,19*42
$GPGSV,5,5,19,79,37,220,,85,3,340,,86,1,29,*76
$GPRMC,134847.00,A,4322.1761,N,00312.9075,W,14.497,194.192,230118,,E,A*39
$GPGGA,134848.00,4322.1748,N,00312.9103,W,1,7,1.254,64.230,M,,M,0,*52
$GPGSA,A,3,5,13,15,20,24,28,30,,,,,,2.254,1.254,1.873*02
$GPGSV,5,1,19,5,45,184,20,7,3,59,,8,,23,,13,74,348,15*75
$GPGSV,5,2,19,15,47,301,32,18,6,321,,20,50,280,29,21,10,299,*4B
$GPGSV,5,3,19,24,16,247,20,28,47,76,24,30,26,56,27,67,41,138,*74
$GPGSV,5,4,19,68,78,333,,69,25,322,,77,39,35,21,78,85,248,19*42
$GPGSV,5,5,19,79,37,220,,85,3,340,,86,1,29,*76
$GPRMC,134848.00,A,4322.1748,N,00312.9103,W,13.260,197.135,230118,,E,A*3A
$GPGGA,134849.00,4322.1728,N,00312.9133,W,1,7,1.254,63.169,M,,M,0,*5E
$GPGSA,A,3,5,13,15,20,24,28,30,,,,,,2.254,1.254,1.873*02
$GPGSV,5,1,19,5,45,184,23,7,3,59,,8,,23,,13,74,348,21*71
$GPGSV,5,2,19,15,47,301,36,18,6,321,,20,50,280,30,21,10,299,*47
$GPGSV,5,3,19,24,16,247,20,28,47,76,23,30,26,56,24,67,41,138,*70
$GPGSV,5,4,19,68,78,333,,69,25,322,,77,39,35,23,78,85,248,18*41
$GPGSV,5,5,19,79,37,220,,85,3,340,,86,1,29,*76
$GPRMC,134849.00,A,4322.1728,N,00312.9133,W,13.029,198.786,230118,,E,A*30
$GPGGA,134850.00,4322.1686,N,00312.9144,W,1,7,1.254,61.759,M,,M,0,*54
$GPGSA,A,3,5,13,15,20,24,28,30,,,,,,2.254,1.254,1.873*02
$GPGSV,5,1,19,5,45,184,23,7,3,59,,8,,23,,13,74,348,21*71
$GPGSV,5,2,19,15,47,301,34,18,6,321,,20,50,280,32,21,10,299,*47
$GPGSV,5,3,19,24,16,247,25,28,47,76,28,30,26,56,24,67,41,138,*7E
$GPGSV,5,4,19,68,78,333,,69,25,322,,77,39,35,19,78,85,248,17*47
$GPGSV,5,5,19,79,37,220,,85,3,340,,86,1,29,*76
$GPRMC,134850.00,A,4322.1686,N,00312.9144,W,13.266,193.927,230118,,E,A*3A
$GPGGA,134851.00,4322.1652,N,00312.9137,W,1,7,1.254,60.041,M,,M,0,*57
$GPGSA,A,3,5,13,15,20,24,28,30,,,,,,2.254,1.254,1.873*02
$GPGSV,5,1,19,5,45,184,27,7,3,59,,8,,23,,13,74,348,17*70
$GPGSV,5,2,19,15,47,301,34,18,6,321,,20,50,280,26,21,10,299,*42
$GPGSV,5,3,19,24,17,247,24,28,47,76,32,30,26,56,30,67,41,139,*71
$GPGSV,5,4,19,68,78,333,,69,25,322,,77,39,35,18,78,85,248,19*48
$GPGSV,5,5,19,79,37,220,,85,3,340,,86,1,29,*76
$GPRMC,134851.00,A,4322.1652,N,00312.9137,W,13.057,191.222,230118,,E,A*3A
$GPGGA,134852.00,4322.1607,N,00312.9144,W,1,7,1.254,58.887,M,,M,0,*59
$GPGSA,A,3,5,13,15,20,24,28,30,,,,,,2.254,1.254,1.873*02
$GPGSV,5,1,19,5,45,184,30,7,3,59,,8,,23,,13,74,348,21*73
$GPGSV,5,2,19,15,47,302,31,18,6,321,,20,50,280,24,21,10,299,*46
$GPGSV,5,3,19,24,17,247,28,28,47,76,33,30,26,56,26,67,41,139,*7B
$GPGSV,5,4,19,68,78,333,,69,25,322,,77,39,35,21,78,85,248,18*43
$GPGSV,5,5,19,79,37,220,,85,3,340,,86,1,29,*76
$GPRMC,134852.00,A,4322.1607,N,00312.9144,W,13.165,195.768,230118,,E,A*32
$GPGGA,134853.00,4322.1573,N,00312.9163,W,1,7,1.254,58.926,M,,M,0,*57
$GPGSA,A,3,5,13,15,20,24,28,30,,,,,,2.254,1.254,1.873*02
$GPGSV,5,1,19,5,45,184,28,7,3,59,,8,,23,,13,74,348,24*7F
$GPGSV,5,2,19,15,47,302,28,18,6,321,,20,50,280,30,21,10,299,*4B
$GPGSV,5,3,19,24,17,247,26,28,47,76,32,30,26,56,23,67,41,139,*71
$GPGSV,5,4,19,68,78,333,,69,25,322,,77,39,35,20,78,85,248,19*43
$GPGSV,5,5,19,79,37,220,,85,3,340,,86,1,29,*76
$GPRMC,134853.00,A,4322.1573,N,00312.9163,W,12.644,209.566,230118,,E,A*39
$GPGGA,134854.00,4322.1542,N,00312.9195,W,1,7,1.254,57.611,M,,M,0,*5F
$GPGSA,A,3,5,13,15,20,24,28,30,,,,,,2.254,1.254,1.873*02
$GPGSV,5,1,19,5,45,184,29,7,3,59,,8,,23,,13,74,348,24*7E
$GPGSV,5,2,19,15,47,302,26,18,6,321,,20,50,280,30,21,10,299,*45
$GPGSV,5,3,19,24,17,247,21,28,47,76,28,30,26,56,26,67,41,139,*78
$GPGSV,5,4,19,68,78,333,,69,25,322,,77,39,35,22,78,85,248,16*4E
$GPGSV,5,5,19,79,37,220,,85,3,340,,86,1,29,*76
$GPRMC,134854.00,A,4322.1542,N,00312.9195,W,12.390,229.081,230118,,E,A*37
$GPGGA,134855.00,4322.1520,N,00312.9238,W,1,7,1.254,56.618,M,,M,0,*56
$GPGSA,A,3,5,13,15,20,24,28,30,,,,,,2.254,1.254,1.873*02
$GPGSV,5,1,19,5,45,184,29,7,3,59,,8,,23,,13,74,348,23*79
$GPGSV,5,2,19,15,47,302,32,18,6,321,,20,50,280,27,21,10,299,*46
$GPGSV,5,3,19,24,17,247,20,28,47,76,28,30,26,56,25,67,41,139,*7A
$GPGSV,5,4,19,68,78,333,,69,25,322,,77,39,35,19,78,85,248,18*48
$GPGSV,5,5,19,79,37,220,,85,3,340,,86,1,29,*76
$GPRMC,134855.00,A,4322.1520,N,00312.9238,W,12.405,250.329,230118,,E,A*32
$GPGGA,134856.00,4322.1508,N,00312.9287,W,1,7,1.254,55.846,M,,M,0,*5D
$GPGSA,A,3,5,13,15,20,24,28,30,,,,,,2.254,1.254,1.873*02
$GPGSV,5,1,19,5,45,184,27,7,3,59,,8,,23,,13,74,348,25*71
$GPGSV,5,2,19,15,47,302,30,18,6,321,,20,50,280,24,21,10,299,*47
$GPGSV,5,3,19,24,17,247,20,28,47,76,28,30,26,56,25,67,41,139,30*79
$GPGSV,5,4,19,68,78,333,,69,25,322,,77,39,35,23,78,85,248,18*41
$GPGSV,5,5,19,79,37,220,,85,3,340,,86,1,29,*76
$GPRMC,134856.00,A,4322.1508,N,00312.9287,W,13.558,263.012,230118,,E,A*3C
$GPGGA,134857.00,4322.1506,N,00312.9348,W,1,7,1.233,55.509,M,,M,0,*57
$GPGSA,A,3,5,13,15,20,28,30,67,,,,,,3.385,1.233,3.152*00
$GPGSV,5,1,20,4,5,,,5,45,184,24,7,3,59,,8,,23,*40
$GPGSV,5,2,20,13,74,349,27,15,47,302,29,18,6,321,,20,50,280,24*4F
$GPGSV,5,3,20,21,10,299,,24,17,247,12,28,47,76,22,30,26,56,18*7A
$GPGSV,5,4,20,67,41,139,29,68,78,333,,69,25,322,,77,39,35,21*48
$GPGSV,5,5,20,78,85,248,20,79,37,220,,85,3,340,,86,1,29,*42
$GPRMC,134857.00,A,4322.1506,N,00312.9348,W,16.229,274.294,230118,,E,A*3F
$GPGGA,134858.00,4322.1510,N,00312.9420,W,1,6,1.403,55.708,M,,M,0,*51
$GPGSA,A,3,5,13,15,20,28,30,,,,,,,3.452,1.403,3.154*0F
$GPGSV,5,1,20,4,5,,,5,45,184,24,7,3,59,,8,,23,*40
$GPGSV,5,2,20,13,74,349,30,15,47,302,29,18,6,321,,20,50,280,32*4E
$GPGSV,5,3,20,21,10,299,,24,17,247,12,28,47,76,27,30,26,56,27*73
$GPGSV,5,4,20,67,41,139,24,68,78,333,,69,25,322,,77,39,35,21*45
$GPGSV,5,5,20,78,85,248,19,79,37,220,,85,3,340,,86,1,29,*48
$GPRMC,134858.00,A,4322.1510,N,00312.9420,W,17.580,276.179,230118,,E,A*39
$GPGGA,134859.00,4322.1483,N,00312.9462,W,1,9,0.981,74.152,M,,M,0,*5E
$GPGSA,A,3,5,13,15,20,24,28,30,67,77,,,,2.093,0.981,1.848*00
$GPGSV,5,1,20,4,5,,,5,45,184,34,7,3,59,,8,,23,*41
$GPGSV,5,2,20,13,74,349,36,15,47,302,41,18,6,321,,20,50,280,39*4D
$GPGSV,5,3,20,21,10,299,,24,17,247,27,28,47,76,38,30,26,56,32*7F
$GPGSV,5,4,20,67,41,139,32,68,78,333,,69,25,322,,77,39,35,26*45
$GPGSV,5,5,20,78,85,249,24,79,37,220,,85,3,340,,86,1,29,*47
$GPRMC,134859.00,A,4322.1483,N,00312.9462,W,14.729,259.720,230118,,E,A*30
$GPGGA,134900.00,4322.1443,N,00312.9505,W,1,10,0.977,90.136,M,,M,0,*66
$GPGSA,A,3,5,13,15,20,24,28,30,67,77,78,,,1.866,0.977,1.590*0F
$GPGSV,5,1,20,4,5,,,5,45,184,34,7,3,59,,8,,23,*41
$GPGSV,5,2,20,13,74,349,30,15,47,302,42,18,6,321,,20,50,280,41*47
$GPGSV,5,3,20,21,10,299,,24,17,247,37,28,47,75,35,30,26,56,37*75
$GPGSV,5,4,20,67,41,139,31,68,78,333,,69,25,322,,77,39,35,29*49
$GPGSV,5,5,20,78,85,249,28,79,37,220,,85,3,340,,86,1,29,*4B
$GPRMC,134900.00,A,4322.1443,N,00312.9505,W,13.325,236.360,230118,,E,A*37
$GPGGA,134901.00,4322.1405,N,00312.9535,W,1,11,0.907,84.848,M,,M,0,*65
$GPGSA,A,3,5,13,15,20,21,24,28,30,67,77,78,,1.599,0.907,1.317*0F
$GPGSV,5,1,20,4,5,,,5,45,184,31,7,3,59,,8,,23,*44
$GPGSV,5,2,20,13,74,349,27,15,47,302,38,18,6,321,,20,50,280,40*4D
$GPGSV,5,3,20,21,10,299,40,24,17,247,34,28,47,75,36,30,26,56,39*7F
$GPGSV,5,4,20,67,41,139,28,68,78,333,,69,25,322,,77,39,35,34*4D
$GPGSV,5,5,20,78,85,249,27,79,37,220,,85,3,340,,86,1,29,*44
$GPRMC,134901.00,A,4322.1405,N,00312.9535,W,15.451,203.828,230118,,E,A*34
$GPGGA,134902.00,4322.1345,N,00312.9541,W,1,11,0.907,81.527,M,,M,0,*67
$GPGSA,A,3,5,13,15,20,21,24,28,30,67,77,78,,1.599,0.907,1.317*0F
$GPGSV,5,1,20,4,5,,,5,45,184,35,7,3,59,,8,,23,*40
$GPGSV,5,2,20,13,74,349,32,15,47,302,40,18,6,321,,20,50,280,35*44
$GPGSV,5,3,20,21,10,299,37,24,17,247,33,28,47,75,39,30,26,56,38*76
$GPGSV,5,4,20,67,41,139,31,68,78,333,,69,25,322,,77,39,35,32*43
$GPGSV,5,5,20,78,85,249,29,79,37,220,,85,3,340,,86,1,29,*4A
$GPRMC,134902.00,A,4322.1345,N,00312.9541,W,17.272,190.028,230118,,E,A*33
$GPGGA,134903.00,4322.1280,N,00312.9536,W,1,11,0.907,75.637,M,,M,0,*67
$GPGSA,A,3,5,13,15,20,21,24,28,30,67,77,78,,1.599,0.907,1.317*0F
$GPGSV,5,1,20,4,5,,,5,45,184,35,7,3,59,,8,,23,*40
$GPGSV,5,2,20,13,74,349,35,15,47,302,42,18,6,321,,20,50,280,41*42
$GPGSV,5,3,20,21,10,299,33,24,17,247,35,28,47,75,35,30,26,56,41*76
$GPGSV,5,4,20,67,41,139,29,68,78,333,,69,25,322,,77,39,35,32*4A
$GPGSV,5,5,20,78,85,249,30,79,37,220,,85,3,340,,86,1,29,*42
$GPRMC,134903.00,A,4322.1280,N,00312.9536,W,19.482,183.224,230118,,E,A*31
$GPGGA,134904.00,4322.1212,N,00312.9541,W,1,11,0.907,74.657,M,,M,0,*6C
$GPGSA,A,3,5,13,15,20,21,24,28,30,67,77,78,,1.599,0.907,1.317*0F
$GPGSV,5,1,20,4,5,,,5,45,184,37,7,3,59,,8,,23,*42
$GPGSV,5,2,20,13,74,349,35,15,47,302,48,18,6,321,,20,50,280,40*49
$GPGSV,5,3,20,21,10,299,38,24,17,247,39,28,47,75,34,30,26,56,42*73
$GPGSV,5,4,20,67,41,139,29,68,78,333,,69,25,322,,77,39,35,28*41
$GPGSV,5,5,20,78,85,249,29,79,37,220,33,85,3,340,,86,1,29,*4A
$GPRMC,134904.00,A,4322.1212,N,00312.9541,W,17.418,196.560,230118,,E,A*33
$GPGGA,134905.00,4322.1157,N,00312.9574,W,1,12,0.856,78.224,M,,M,0,*63
$GPGSA,A,3,5,13,15,20,21,24,28,30,67,77,78,79,1.570,0.856,1.316*02
$GPGSV,5,1,20,4,5,,,5,45,184,32,7,3,59,,8,,23,*47
$GPGSV,5,2,20,13,74,349,35,15,47,302,48,18,6,321,,20,50,280,42*4B
$GPGSV,5,3,20,21,10,299,34,24,17,247,39,28,47,75,39,30,26,56,39*7E
$GPGSV,5,4,20,67,41,139,38,68,78,333,,69,25,322,,77,39,35,30*48
$GPGSV,5,5,20,78,85,249,27,79,37,220,29,85,3,340,,86,1,29,*4F
$GPRMC,134905.00,A,4322.1157,N,00312.9574,W,18.850,204.410,230118,,E,A*37
$GPGGA,134906.00,4322.1106,N,00312.9616,W,1,12,0.856,78.577,M,,M,0,*62
$GPGSA,A,3,5,13,15,20,21,24,28,30,67,77,78,79,1.570,0.856,1.316*02
$GPGSV,5,1,20,4,5,,,5,45,184,35,7,3,59,,8,,23,*40
$GPGSV,5,2,20,13,74,349,36,15,47,302,48,18,6,321,,20,50,280,42*48
$GPGSV,5,3,20,21,10,299,32,24,17,247,36,28,47,75,39,30,26,56,35*7B
$GPGSV,5,4,20,67,41,139,34,68,78,333,,69,25,322,,77,39,35,29*4C
$GPGSV,5,5,20,78,85,249,28,79,37,220,27,85,3,340,,86,1,29,*4E
$GPRMC,134906.00,A,4322.1106,N,00312.9616,W,18.589,209.781,230118,,E,A*38
$GPGGA,134907.00,4322.1064,N,00312.9654,W,1,12,0.863,76.562,M,,M,0,*6C
$GPGSA,A,3,5,7,13,15,20,21,24,28,30,67,77,78,1.359,0.863,1.050*31
$GPGSV,5,1,19,5,45,184,34,7,3,59,31,8,,23,,13,74,349,36*72
$GPGSV,5,2,19,15,47,302,47,18,6,321,,20,50,280,42,21,10,299,31*45
$GPGSV,5,3,19,24,17,247,33,28,47,75,38,30,26,56,32,67,41,139,32*7D
$GPGSV,5,4,19,68,78,333,,69,25,322,,77,39,35,29,78,85,249,26*47
$GPGSV,5,5,19,79,37,220,28,85,3,340,,86,1,29,*7C
$GPRMC,134907.00,A,4322.1064,N,00312.9654,W,18.740,216.243,230118,,E,A*38
$GPGGA,134908.00,4322.1014,N,00312.9698,W,1,11,0.864,75.083,M,,M,0,*69
$GPGSA,A,3,5,7,13,15,20,21,24,28,30,67,77,,1.440,0.864,1.152*35
$GPGSV,5,1,19,5,45,184,34,7,3,59,30,8,,23,,13,74,349,36*73
$GPGSV,5,2,19,15,47,302,47,18,6,321,,20,50,280,44,21,10,299,27*44
$GPGSV,5,3,19,24,17,247,38,28,47,75,38,30,26,56,30,67,41,139,27*70
$GPGSV,5,4,19,68,78,333,,69,25,322,,77,39,35,30,78,85,249,24*4D
$GPGSV,5,5,19,79,37,220,28,85,3,340,,86,1,29,*7C
$GPRMC,134908.00,A,4322.1014,N,00312.9698,W,20.740,211.867,230118,,E,A*30
$GPGGA,134909.00,4322.0958,N,00312.9743,W,1,12,0.863,73.155,M,,M,0,*67
$GPGSA,A,3,5,7,13,15,20,21,24,28,30,67,77,78,1.359,0.863,1.050*31
$GPGSV,5,1,19,5,45,184,32,7,3,59,25,8,,23,,13,74,349,36*71
$GPGSV,5,2,19,15,47,302,48,18,6,321,,20,50,280,44,21,10,299,27*4B
$GPGSV,5,3,19,24,17,247,40,28,47,75,39,30,26,57,28,67,41,139,26*77
$GPGSV,5,4,19,68,78,333,,69,25,322,,77,39,35,31,78,85,250,26*46
$GPGSV,5,5,19,79,38,220,29,85,3,340,,86,1,29,*72
$GPRMC,134909.00,A,4322.0958,N,00312.9743,W,22.047,209.079,230118,,E,A*3A
$GPGGA,134910.00,4322.0904,N,00312.9784,W,1,13,0.813,72.129,M,,M,0,*61
$GPGSA,A,3,5,7,13,15,20,21,24,28,30,67,77,78,1.324,0.813,1.045*38
$GPGSV,5,1,19,5,45,184,31,7,3,59,20,8,,23,,13,74,349,36*77
$GPGSV,5,2,19,15,47,302,47,18,6,321,,20,50,280,42,21,10,299,27*42
$GPGSV,5,3,19,24,17,247,38,28,47,75,39,30,26,57,27,67,41,139,30*70
$GPGSV,5,4,19,68,78,333,,69,25,322,,77,39,35,29,78,85,250,26*4F
$GPGSV,5,5,19,79,38,220,26,85,3,340,,86,1,29,*7D
$GPRMC,134910.00,A,4322.0904,N,00312.9784,W,22.347,207.469,230118,,E,A*38
$GPGGA,134911.00,4322.0849,N,00312.9819,W,1,13,0.813,71.251,M,,M,0,*6C
$GPGSA,A,3,5,7,13,15,20,21,24,28,30,67,77,78,1.324,0.813,1.045*38
$GPGSV,5,1,19,5,45,184,31,7,3,59,19,8,,23,,13,74,349,37*7C
$GPGSV,5,2,19,15,47,302,48,18,6,321,,20,50,280,44,21,10,299,28*44
$GPGSV,5,3,19,24,17,247,37,28,47,75,38,30,26,57,24,67,41,139,28*74
$GPGSV,5,4,19,68,78,333,,69,25,322,,77,39,35,30,78,85,250,28*49
$GPGSV,5,5,19,79,38,220,25,85,3,340,,86,1,29,*7E
$GPRMC,134911.00,A,4322.0849,N,00312.9819,W,22.133,208.210,230118,,E,A*3C
$GPGGA,134912.00,4322.0796,N,00312.9858,W,1,12,0.863,70.078,M,,M,0,*69
$GPGSA,A,3,5,7,13,15,20,21,24,28,30,67,77,78,1.359,0.863,1.049*39
$GPGSV,5,1,19,5,45,184,31,7,3,59,19,8,,23,,13,74,349,36*7D
$GPGSV,5,2,19,15,47,302,48,18,6,321,,20,50,280,43,21,10,299,31*4B
$GPGSV,5,3,19,24,17,247,38,28,47,75,39,30,26,57,28,67,41,139,29*77
$GPGSV,5,4,19,68,78,333,,69,25,322,,77,39,35,30,78,85,250,28*49
$GPGSV,5,5,19,79,38,220,22,85,3,340,,86,1,29,*79
$GPRMC,134912.00,A,4322.0796,N,00312.9858,W,21.459,207.731,230118,,E,A*34
$GPGGA,134913.00,4322.0745,N,00312.9895,W,1,11,0.906,70.064,M,,M,0,*6B
$GPGSA,A,3,5,13,15,20,21,24,28,30,67,77,78,,1.598,0.906,1.316*0E
$GPGSV,5,1,19,5,45,184,30,7,3,59,17,8,,23,,13,74,349,36*72
$GPGSV,5,2,19,15,47,302,48,18,6,321,,20,50,280,44,21,10,299,31*4C
$GPGSV,5,3,19,24,17,247,39,28,47,75,39,30,26,57,27,67,41,139,28*78
$GPGSV,5,4,19,68,78,333,,69,25,322,,77,39,35,31,78,85,250,26*46
$GPGSV,5,5,19,79,38,220,21,85,3,340,,86,1,28,*7B
$GPRMC,134913.00,A,4322.0745,N,00312.9895,W,19.511,208.657,230118,,E,A*32
$GPGGA,134914.00,4322.0696,N,00312.9931,W,1,12,0.856,69.388,M,,M,0,*62
$GPGSA,A,3,5,13,15,20,21,24,28,30,67,77,78,79,1.569,0.856,1.315*09
$GPGSV,5,1,19,5,45,184,33,7,3,59,15,8,,23,,13,74,349,36*73
$GPGSV,5,2,19,15,47,302,48,18,6,321,,20,50,280,44,21,10,299,34*49
$GPGSV,5,3,19,24,17,247,37,28,47,75,38,30,26,57,32,67,41,139,25*7E
$GPGSV,5,4,19,68,78,333,,69,25,322,,77,39,35,31,78,85,250,27*47
$GPGSV,5,5,19,79,38,220,28,85,3,340,,86,1,28,*72
$GPRMC,134914.00,A,4322.0696,N,00312.9931,W,19.679,208.868,230118,,E,A*3A
$GPGGA,134915.00,4322.0652,N,00312.9967,W,1,11,0.906,68.994,M,,M,0,*69
$GPGSA,A,3,5,13,15,20,21,24,28,30,67,77,78,,1.597,0.906,1.316*01
$GPGSV,5,1,19,5,45,184,34,7,3,59,12,8,,23,,13,74,349,36*73
$GPGSV,5,2,19,15,47,302,49,18,6,321,,20,50,280,44,21,10,299,35*49
$GPGSV,5,3,19,24,17,247,40,28,47,75,41,30,26,57,32,67,41,139,25*70
$GPGSV,5,4,19,68,78,333,22,69,25,322,,77,39,35,29,78,85,250,25*4C
$GPGSV,5,5,19,79,38,220,23,85,3,340,,86,1,28,*79
$GPRMC,134915.00,A,4322.0652,N,00312.9967,W,17.210,213.361,230118,,E,A*3D
$GPGGA,134916.00,4322.0618,N,00313.0008,W,1,10,0.911,68.993,M,,M,0,*6C
$GPGSA,A,3,5,13,15,20,21,24,28,30,67,77,,,1.748,0.911,1.492*03
$GPGSV,5,1,19,5,45,184,36,7,3,59,12,8,,23,,13,74,349,34*73
$GPGSV,5,2,19,15,47,302,49,18,6,321,,20,50,280,46,21,10,299,37*49
$GPGSV,5,3,19,24,17,247,39,28,47,75,37,30,26,57,30,67,41,139,31*78
$GPGSV,5,4,19,68,78,333,18,69,25,322,,77,39,35,25,78,85,250,23*4F
$GPGSV,5,5,19,79,38,220,25,85,3,340,,86,1,28,*7F
$GPRMC,134916.00,A,4322.0618,N,00313.0008,W,15.151,223.284,230118,,E,A*35
$GPGGA,134917.00,4322.0593,N,00313.0052,W,1,10,0.958,68.305,M,,M,0,*6A
$GPGSA,A,3,5,13,15,20,21,28,30,67,78,79,,,1.743,0.958,1.456*0A
$GPGSV,5,1,20,4,5,,,5,45,184,33,7,3,59,12,8,,23,*45
$GPGSV,5,2,20,13,74,349,34,15,47,302,46,18,6,321,,20,50,280,46*40
$GPGSV,5,3,20,21,10,299,40,24,17,247,35,28,47,75,36,30,26,57,36*70
$GPGSV,5,4,20,67,41,139,30,68,78,333,22,69,25,322,,77,39,35,24*45
$GPGSV,5,5,20,78,85,250,27,79,38,220,30,85,3,340,,86,1,28,*41
$GPRMC,134917.00,A,4322.0593,N,00313.0052,W,14.364,232.437,230118,,E,A*30
$GPGGA,134918.00,4322.0572,N,00313.0097,W,1,12,0.856,68.323,M,,M,0,*6A
$GPGSA,A,3,5,13,15,20,21,24,28,30,67,77,78,79,1.569,0.856,1.315*09
$GPGSV,5,1,20,4,5,,,5,45,184,37,7,3,59,12,8,,23,*41
$GPGSV,5,2,20,13,74,349,36,15,47,302,41,18,6,321,,20,50,279,43*46
$GPGSV,5,3,20,21,10,299,36,24,17,247,29,28,47,75,35,30,26,57,38*71
$GPGSV,5,4,20,67,41,139,30,68,78,333,19,69,25,322,,77,39,35,27*4E
$GPGSV,5,5,20,78,85,250,28,79,38,220,29,85,3,340,,86,1,28,*46
$GPRMC,134918.00,A,4322.0572,N,00313.0097,W,14.353,240.629,230118,,E,A*35
$GPGGA,134919.00,4322.0557,N,00313.0148,W,1,12,0.856,69.195,M,,M,0,*61
$GPGSA,A,3,5,13,15,20,21,24,28,30,67,77,78,79,1.569,0.856,1.314*08
$GPGSV,5,1,20,4,5,,,5,45,184,36,7,3,59,12,8,,23,*40
$GPGSV,5,2,20,13,74,349,36,15,47,302,47,18,6,321,,20,50,279,40*43
$GPGSV,5,3,20,21,10,299,31,24,17,247,29,28,47,75,35,30,26,57,36*78
$GPGSV,5,4,20,67,41,139,33,68,78,333,24,69,25,322,,77,39,35,29*4D
$GPGSV,5,5,20,78,85,250,28,79,38,220,29,85,3,340,,86,1,28,*46
$GPRMC,134919.00,A,4322.0557,N,00313.0148,W,14.111,248.505,230118,,E,A*31
$GPGGA,134920.00,4322.0549,N,00313.0196,W,1,12,0.850,69.710,M,,M,0,*6A
$GPGSA,A,3,5,13,15,20,21,24,28,30,67,68,77,79,1.568,0.850,1.317*0D
$GPGSV,5,1,20,4,5,,,5,45,184,35,7,3,59,14,8,,23,*45
$GPGSV,5,2,20,13,74,349,37,15,47,302,46,18,6,321,,20,50,279,42*41
$GPGSV,5,3,20,21,10,299,29,24,17,247,30,28,47,75,34,30,26,57,39*77
$GPGSV,5,4,20,67,41,139,33,68,78,333,29,69,25,322,,77,39,35,30*48
$GPGSV,5,5,20,78,85,251,24,79,38,220,28,85,3,340,,86,1,28,*4A
$GPRMC,134920.00,A,4322.0549,N,00313.0196,W,13.176,254.838,230118,,E,A*3F
$GPGGA,134921.00,4322.0542,N,00313.0238,W,1,13,0.848,70.270,M,,M,0,*64
$GPGSA,A,3,5,13,15,20,21,24,28,30,67,68,77,78,1.475,0.848,1.207*08
$GPGSV,5,1,20,4,5,,,5,45,184,37,7,3,59,12,8,,23,*41
$GPGSV,5,2,20,13,74,349,36,15,47,302,49,18,6,321,,20,50,279,43*4E
$GPGSV,5,3,20,21,10,299,29,24,17,247,30,28,47,75,41,30,26,57,33*7F
$GPGSV,5,4,20,67,41,139,34,68,78,333,32,69,25,322,,77,39,35,25*41
$GPGSV,5,5,20,78,85,251,26,79,38,220,28,85,3,340,,86,1,28,*48
$GPRMC,134921.00,A,4322.0542,N,00313.0238,W,10.061,244.270,230118,,E,A*31
$GPGGA,134922.00,4322.0523,N,00313.0266,W,1,13,0.848,69.727,M,,M,0,*64
$GPGSA,A,3,5,13,15,20,21,24,28,30,67,68,77,78,1.475,0.848,1.207*08
$GPGSV,5,1,20,4,5,,,5,45,184,33,7,3,59,18,8,,23,*4F
$GPGSV,5,2,20,13,74,349,34,15,47,302,49,18,6,321,,20,50,279,44*4B
$GPGSV,5,3,20,21,10,299,30,24,17,247,38,28,47,75,38,30,26,57,37*75
$GPGSV,5,4,20,67,41,139,29,68,78,333,29,69,25,322,,77,39,35,32*41
$GPGSV,5,5,20,78,85,251,26,79,38,220,31,85,3,339,,86,1,28,*4E
$GPRMC,134922.00,A,4322.0523,N,00313.0266,W,11.281,217.079,230118,,E,A*3E
$GPGGA,134923.00,4322.0491,N,00313.0279,W,1,13,0.848,68.130,M,,M,0,*62
$GPGSA,A,3,5,13,15,20,21,24,28,30,67,68,77,78,1.475,0.848,1.207*08
$GPGSV,5,1,20,4,5,,,5,45,184,29,7,3,59,12,8,,23,*4E
$GPGSV,5,2,20,13,74,349,34,15,47,302,47,18,6,321,,20,50,279,46*47
$GPGSV,5,3,20,21,10,299,39,24,17,247,37,28,47,75,35,30,26,57,35*7C
$GPGSV,5,4,20,67,41,139,31,68,78,333,27,69,25,322,,77,39,35,34*40
$GPGSV,5,5,20,78,85,251,26,79,38,220,37,85,3,339,,86,1,28,*48
$GPRMC,134923.00,A,4322.0491,N,00313.0279,W,11.984,190.531,230118,,E,A*32
$GPGGA,134924.00,4322.0454,N,00313.0267,W,1,13,0.848,67.027,M,,M,0,*6B
$GPGSA,A,3,5,13,15,20,21,24,28,30,67,68,77,78,1.475,0.848,1.207*08
$GPGSV,5,1,20,4,5,,,5,45,184,28,7,2,59,17,8,,23,*4B
$GPGSV,5,2,20,13,74,349,32,15,47,302,45,18,6,321,,20,50,279,46*43
$GPGSV,5,3,20,21,10,299,38,24,17,247,35,28,47,75,41,30,26,57,40*7E
$GPGSV,5,4,20,67,41,139,34,68,78,333,27,69,25,322,,77,39,35,33*42
$GPGSV,5,5,20,78,85,251,29,79,38,220,37,85,3,339,,86,1,28,*47
$GPRMC,134924.00,A,4322.0454,N,00313.0267,W,10.996,166.379,230118,,E,A*32
$GPGGA,134925.00,4322.0422,N,00313.0256,W,1,13,0.848,69.846,M,,M,0,*68
$GPGSA,A,3,5,13,15,20,21,24,28,30,67,68,77,78,1.474,0.848,1.206*08
$GPGSV,5,1,20,4,5,,,5,45,184,28,7,2,59,12,8,,23,*4E
$GPGSV,5,2,20,13,74,349,33,15,47,302,47,18,6,321,,20,50,279,45*43
$GPGSV,5,3,20,21,10,299,39,24,17,247,38,28,47,75,38,30,26,57,38*73
$GPGSV,5,4,20,67,41,139,36,68,78,333,29,69,25,322,,77,39,35,34*49
$GPGSV,5,5,20,78,85,251,28,79,38,220,39,85,3,339,,86,1,28,*48
$GPRMC,134925.00,A,4322.0422,N,00313.0256,W,9.419,166.660,230118,,E,A*0F
$GPGGA,134926.00,4322.0395,N,00313.0248,W,1,13,0.848,71.323,M,,M,0,*6E
$GPGSA,A,3,5,13,15,20,21,24,28,30,67,68,77,78,1.474,0.848,1.206*08
$GPGSV,5,1,20,4,5,,,5,45,184,29,7,2,59,,8,,23,*4C
$GPGSV,5,2,20,13,74,349,33,15,47,302,47,18,6,321,,20,50,279,45*43
$GPGSV,5,3,20,21,10,299,37,24,17,247,37,28,47,75,38,30,26,57,39*73
$GPGSV,5,4,20,67,41,139,35,68,78,333,30,69,25,322,,77,39,35,34*42
$GPGSV,5,5,20,78,85,251,27,79,38,220,40,85,3,339,,86,1,28,*49
$GPRMC,134926.00,A,4322.0395,N,00313.0248,W,9.068,169.092,230118,,E,A*0E
$GPGGA,134927.00,4322.0364,N,00313.0249,W,1,13,0.848,73.227,M,,M,0,*67
$GPGSA,A,3,5,13,15,20,21,24,28,30,67,68,77,78,1.474,0.848,1.206*08
$GPGSV,5,1,19,5,45,184,29,7,2,59,,8,,23,,13,74,349,32*79
$GPGSV,5,2,19,15,47,302,49,18,6,321,,20,50,279,46,21,10,299,35*4D
$GPGSV,5,3,19,24,17,247,39,28,47,75,38,30,26,57,36,67,41,139,32*72
$GPGSV,5,4,19,68,78,333,30,69,25,322,,77,39,35,33,78,85,251,25*45
$GPGSV,5,5,19,79,38,220,39,85,3,339,,86,1,28,*7C
$GPRMC,134927.00,A,4322.0364,N,00313.0249,W,9.451,184.837,230118,,E,A*0A
$GPGGA,134928.00,4322.0336,N,00313.0269,W,1,12,0.856,75.010,M,,M,0,*63
$GPGSA,A,3,5,13,15,20,21,24,28,30,67,77,78,79,1.568,0.856,1.314*09
$GPGSV,5,1,19,5,45,184,30,7,2,59,,8,,23,,13,74,349,33*70
$GPGSV,5,2,19,15,47,302,50,18,6,321,,20,50,279,46,21,10,299,35*45
$GPGSV,5,3,19,24,17,247,39,28,47,75,43,30,26,57,34,67,41,139,28*77
$GPGSV,5,4,19,68,78,333,30,69,25,322,,77,39,35,30,78,85,251,27*44
$GPGSV,5,5,19,79,38,220,34,85,3,339,,86,1,28,*71
$GPRMC,134928.00,A,4322.0336,N,00313.0269,W,10.672,214.071,230118,,E,A*3B
$GPGGA,134929.00,4322.0308,N,00313.0302,W,1,13,0.848,76.276,M,,M,0,*6C
$GPGSA,A,3,5,13,15,20,21,24,28,30,67,68,77,78,1.474,0.848,1.206*08
$GPGSV,5,1,19,5,45,184,32,7,2,59,20,8,,23,,13,74,349,36*75
$GPGSV,5,2,19,15,47,302,50,18,6,321,,20,50,279,45,21,10,299,36*45
$GPGSV,5,3,19,24,17,247,37,28,47,75,43,30,26,57,28,67,41,139,29*75
$GPGSV,5,4,19,68,78,333,25,69,25,322,,77,39,35,27,78,85,251,28*49
$GPGSV,5,5,19,79,38,220,30,85,3,339,,86,1,28,*75
$GPRMC,134929.00,A,4322.0308,N,00313.0302,W,12.702,219.881,230118,,E,A*35
$GPGGA,134930.00,4322.0279,N,00313.0341,W,1,12,0.856,76.719,M,,M,0,*66
$GPGSA,A,3,5,13,15,20,21,24,28,30,67,77,78,79,1.568,0.856,1.313*0E
$GPGSV,5,1,19,5,45,184,35,7,2,59,25,8,,23,,13,74,349,34*75
$GPGSV,5,2,19,15,47,302,49,18,6,321,,20,50,279,45,21,10,299,37*4C
$GPGSV,5,3,19,24,17,247,37,28,47,75,43,30,26,57,33,67,41,139,27*71
$GPGSV,5,4,19,68,78,333,24,69,25,322,,77,39,35,29,78,85,252,26*4B
$GPGSV,5,5,19,79,38,220,27,85,3,339,,86,1,28,*73
$GPRMC,134930.00,A,4322.0279,N,00313.0341,W,14.569,225.165,230118,,E,A*38
$GPGGA,134931.00,4322.0246,N,00313.0388,W,1,11,0.860,76.265,M,,M,0,*66
$GPGSA,A,3,5,13,15,20,21,24,28,30,67,77,79,,1.720,0.860,1.490*06
$GPGSV,5,1,19,5,45,184,36,7,2,59,20,8,,23,,13,74,349,35*72
$GPGSV,5,2,19,15,47,302,48,18,6,321,,20,50,279,43,21,10,299,36*4A
$GPGSV,5,3,19,24,17,247,36,28,47,75,44,30,26,57,29,67,41,139,32*78
$GPGSV,5,4,19,68,78,333,24,69,25,322,,77,39,35,25,78,85,252,24*45
$GPGSV,5,5,19,79,38,220,25,85,3,339,,86,1,28,*71
$GPRMC,134931.00,A,4322.0246,N,00313.0388,W,17.865,225.459,230118,,E,A*38
$GPGGA,134932.00,4322.0210,N,00313.0439,W,1,11,0.963,75.295,M,,M,0,*65
$GPGSA,A,3,5,13,15,20,21,24,28,30,67,68,78,,1.549,0.963,1.214*0C
$GPGSV,5,1,19,5,45,184,30,7,2,59,15,8,,23,,13,74,349,36*71
$GPGSV,5,2,19,15,47,302,49,18,6,321,,20,50,279,41,21,10,299,36*49
$GPGSV,5,3,19,24,17,247,35,28,47,75,43,30,26,57,28,67,41,139,35*7A
$GPGSV,5,4,19,68,78,333,25,69,25,322,,77,39,35,19,78,85,252,29*46
$GPGSV,5,5,19,79,38,220,21,85,3,339,,86,1,28,*75
$GPRMC,134932.00,A,4322.0210,N,00313.0439,W,18.516,227.284,230118,,E,A*37
$GPGGA,134933.00,4322.0176,N,00313.0492,W,1,11,0.963,74.782,M,,M,0,*64
$GPGSA,A,3,5,13,15,20,21,24,28,30,67,68,78,,1.549,0.963,1.213*0B
$GPGSV,5,1,19,5,45,184,28,7,2,59,17,8,,23,,13,74,349,35*79
$GPGSV,5,2,19,15,47,302,49,18,6,321,,20,50,279,44,21,10,299,37*4D
$GPGSV,5,3,19,24,17,247,31,28,47,75,42,30,26,57,27,67,41,139,35*70
$GPGSV,5,4,19,68,78,333,28,69,25,322,,77,39,35,19,78,85,252,28*4A
$GPGSV,5,5,19,79,38,220,18,85,3,339,,86,1,28,*7F
$GPRMC,134933.00,A,4322.0176,N,00313.0492,W,18.640,227.899,230118,,E,A*32
$GPGGA,134934.00,4322.0139,N,00313.0542,W,1,10,0.971,73.607,M,,M,0,*6D
$GPGSA,A,3,5,13,15,20,21,24,28,30,67,78,,,1.635,0.971,1.316*0A
$GPGSV,5,1,19,5,45,184,32,7,2,59,12,8,,23,,13,74,349,34*76
$GPGSV,5,2,19,15,47,302,49,18,6,321,,20,50,279,44,21,10,299,37*4D
$GPGSV,5,3,19,24,17,247,35,28,47,75,42,30,26,57,26,67,41,139,34*74
$GPGSV,5,4,19,68,78,333,29,69,25,322,,77,39,35,20,78,85,252,27*4E
$GPGSV,5,5,19,79,38,220,19,85,3,339,,86,1,28,*7E
$GPRMC,134934.00,A,4322.0139,N,00313.0542,W,19.333,223.704,230118,,E,A*3D
$GPGGA,134935.00,4322.0103,N,00313.0594,W,1,12,0.898,72.104,M,,M,0,*6F
$GPGSA,A,3,5,13,15,20,21,24,28,30,67,68,77,78,1.504,0.898,1.207*02
$GPGSV,5,1,19,5,45,184,35,7,2,59,14,8,,23,,13,74,350,34*7F
$GPGSV,5,2,19,15,47,302,48,18,6,321,,20,50,279,43,21,10,299,39*45
$GPGSV,5,3,19,24,17,247,33,28,47,75,40,30,26,57,25,67,41,139,32*75
$GPGSV,5,4,19,68,78,333,30,69,25,322,,77,39,35,27,78,85,252,28*4E
$GPGSV,5,5,19,79,38,220,22,85,3,339,,86,1,28,*76
$GPRMC,134935.00,A,4322.0103,N,00313.0594,W,19.304,226.945,230118,,E,A*34
$GPGGA,134936.00,4322.0066,N,00313.0652,W,1,11,0.905,71.865,M,,M,0,*6C
$GPGSA,A,3,5,13,15,20,21,24,28,30,67,77,78,,1.595,0.905,1.313*05
$GPGSV,5,1,19,5,45,184,36,7,2,59,12,8,,23,,13,74,350,33*7D
$GPGSV,5,2,19,15,47,302,47,18,6,321,,20,50,279,44,21,10,299,40*43
$GPGSV,5,3,19,24,17,247,36,28,47,75,39,30,26,57,24,67,41,139,32*7F
$GPGSV,5,4,19,68,78,333,30,69,25,322,,77,39,35,29,78,85,252,27*4F
$GPGSV,5,5,19,79,38,220,22,85,3,339,,86,1,28,*76
$GPRMC,134936.00,A,4322.0066,N,00313.0652,W,20.938,230.667,230118,,E,A*3B
$GPGGA,134937.00,4322.0029,N,00313.0717,W,1,11,0.905,72.071,M,,M,0,*68
$GPGSA,A,3,5,13,15,20,21,24,28,30,67,77,78,,1.595,0.905,1.313*05
$GPGSV,5,1,20,4,5,,,5,45,184,35,7,2,59,12,8,,23,*42
$GPGSV,5,2,20,13,74,350,33,15,47,302,46,18,6,321,,20,50,279,42*4D
$GPGSV,5,3,20,21,10,299,39,24,17,247,37,28,47,75,38,30,26,57,26*73
$GPGSV,5,4,20,67,41,139,29,68,78,333,29,69,25,322,,77,39,35,26*44
$GPGSV,5,5,20,78,85,252,27,79,38,220,24,85,3,339,,86,1,28,*48
$GPRMC,134937.00,A,4322.0029,N,00313.0717,W,21.798,234.051,230118,,E,A*33
$GPGGA,134938.00,4321.9993,N,00313.0787,W,1,13,0.813,71.891,M,,M,0,*6D
$GPGSA,A,3,5,7,13,15,20,21,24,28,30,67,77,78,1.323,0.813,1.044*3E
$GPGSV,5,1,20,4,5,,,5,45,184,31,7,2,59,17,8,,23,*43
$GPGSV,5,2,20,13,74,350,35,15,47,302,45,18,6,321,,20,50,279,44*4E
$GPGSV,5,3,20,21,10,299,43,24,17,247,36,28,47,75,38,30,26,57,29*70
$GPGSV,5,4,20,67,41,139,31,68,78,333,29,69,25,322,,77,39,35,27*4C
$GPGSV,5,5,20,78,85,252,28,79,38,220,27,85,3,339,,86,1,28,*44
$GPRMC,134938.00,A,4321.9993,N,00313.0787,W,22.841,233.111,230118,,E,A*3D
$GPGGA,134939.00,4321.9955,N,00313.0859,W,1,13,0.813,71.218,M,,M,0,*61
$GPGSA,A,3,5,7,13,15,20,21,24,28,30,67,77,78,1.323,0.813,1.044*3E
$GPGSV,5,1,20,4,5,,,5,45,184,30,7,2,59,14,8,,23,*41
$GPGSV,5,2,20,13,74,350,33,15,47,302,44,18,6,321,,20,50,279,43*4E
$GPGSV,5,3,20,21,10,299,44,24,17,247,35,28,47,75,35,30,26,57,30*71
$GPGSV,5,4,20,67,41,139,30,68,78,333,27,69,25,322,,77,39,35,28*4C
$GPGSV,5,5,20,78,85,252,28,79,38,220,28,85,3,339,,86,1,28,*4B
$GPRMC,134939.00,A,4321.9955,N,00313.0859,W,24.416,235.075,230118,,E,A*37
$GPGGA,134940.00,4321.9916,N,00313.0937,W,1,13,0.813,70.785,M,,M,0,*61
$GPGSA,A,3,5,7,13,15,20,21,24,28,30,67,77,78,1.323,0.813,1.043*39
$GPGSV,5,1,20,4,5,,,5,45,184,32,7,2,59,15,8,,23,*42
$GPGSV,5,2,20,13,74,350,33,15,47,302,43,18,6,321,,20,50,279,44*4E
$GPGSV,5,3,20,21,10,299,43,24,17,247,33,28,47,75,34,30,26,57,35*74
$GPGSV,5,4,20,67,41,139,31,68,78,333,24,69,25,322,,77,39,35,29*4F
$GPGSV,5,5,20,78,85,253,29,79,38,220,28,85,3,339,,86,1,28,*4B
$GPRMC,134940.00,A,4321.9916,N,00313.0937,W,25.497,236.629,230118,,E,A*33
$GPGGA,134941.00,4321.9877,N,00313.1018,W,1,12,0.855,70.866,M,,M,0,*62
$GPGSA,A,3,5,13,15,20,21,24,28,30,67,77,78,79,1.567,0.855,1.312*03
$GPGSV,5,1,20,4,5,,,5,45,184,33,7,2,59,,8,,23,*47
$GPGSV,5,2,20,13,74,350,33,15,47,302,44,18,6,321,,20,50,279,43*4E
$GPGSV,5,3,20,21,10,299,40,24,17,247,30,28,47,75,35,30,26,57,38*78
$GPGSV,5,4,20,67,41,139,30,68,78,333,24,69,25,322,,77,39,35,25*42
$GPGSV,5,5,20,78,85,253,29,79,38,220,27,85,3,339,,86,1,28,*44
$GPRMC,134941.00,A,4321.9877,N,00313.1018,W,26.140,237.473,230118,,E,A*31
$GPGGA,134942.00,4321.9839,N,00313.1100,W,1,12,0.855,70.910,M,,M,0,*63
$GPGSA,A,3,5,13,15,20,21,24,28,30,67,77,78,79,1.566,0.855,1.312*02
$GPGSV,5,1,20,4,5,,,5,45,184,33,7,2,59,,8,,23,*47
$GPGSV,5,2,20,13,74,350,33,15,47,302,47,18,6,321,,20,50,279,43*4D
$GPGSV,5,3,20,21,10,299,37,24,17,247,28,28,47,75,42,30,26,57,38*71
$GPGSV,5,4,20,67,41,139,32,68,78,333,19,69,25,322,,77,39,35,31*4B
$GPGSV,5,5,20,78,85,253,30,79,38,220,27,85,3,339,,86,1,28,*4C
$GPRMC,134942.00,A,4321.9839,N,00313.1100,W,26.051,238.684,230118,,E,A*34
$GPGGA,134943.00,4321.9803,N,00313.1186,W,1,11,0.905,70.651,M,,M,0,*68
$GPGSA,A,3,5,13,15,20,21,24,28,30,67,77,78,,1.594,0.905,1.313*04
$GPGSV,5,1,20,4,5,,,5,45,184,34,7,2,59,,8,,23,*40
$GPGSV,5,2,20,13,74,350,31,15,47,302,48,18,6,321,,20,50,279,43*40
$GPGSV,5,3,20,21,10,299,36,24,17,247,27,28,47,75,42,30,26,57,37*70
$GPGSV,5,4,20,67,41,139,32,68,78,333,22,69,25,322,,77,39,35,31*43
$GPGSV,5,5,20,78,85,253,29,79,38,220,23,85,3,339,,86,1,28,*40
$GPRMC,134943.00,A,4321.9803,N,00313.1186,W,26.408,240.934,230118,,E,A*31
$GPGGA,134944.00,4321.9769,N,00313.1277,W,1,11,0.905,70.964,M,,M,0,*68
$GPGSA,A,3,5,13,15,20,21,24,28,30,67,77,78,,1.594,0.905,1.313*04
$GPGSV,5,1,20,4,5,,,5,45,184,30,7,2,59,,8,,23,*44
$GPGSV,5,2,20,13,74,350,30,15,47,302,49,18,6,321,,20,50,279,40*43
$GPGSV,5,3,20,21,10,299,34,24,17,247,29,28,47,75,43,30,26,57,39*73
$GPGSV,5,4,20,67,41,139,30,68,78,333,23,69,25,322,,77,39,35,27*47
$GPGSV,5,5,20,78,85,253,28,79,38,220,23,85,3,339,,86,1,28,*41
$GPRMC,134944.00,A,4321.9769,N,00313.1277,W,27.805,243.161,230118,,E,A*33
$GPGGA,134945.00,4321.9736,N,00313.1374,W,1,12,0.855,71.012,M,,M,0,*6F
$GPGSA,A,3,5,13,15,20,21,24,28,30,67,77,78,79,1.566,0.855,1.312*02
$GPGSV,5,1,20,4,5,,,5,45,184,25,7,2,59,,8,,23,*40
$GPGSV,5,2,20,13,74,350,30,15,47,302,49,18,6,321,,20,50,279,39*4D
$GPGSV,5,3,20,21,10,299,32,24,17,247,23,28,47,75,42,30,26,57,39*7E
$GPGSV,5,4,20,67,41,139,29,68,78,333,28,69,25,322,,77,39,35,33*41
$GPGSV,5,5,20,78,85,253,30,79,38,220,26,85,3,339,,86,1,28,*4D
$GPRMC,134945.00,A,4321.9736,N,00313.1374,W,28.651,245.660,230118,,E,A*3A
$GPGGA,134946.00,4321.9707,N,00313.1473,W,1,12,0.855,71.299,M,,M,0,*6F
$GPGSA,A,3,5,13,15,20,21,24,28,30,67,77,78,79,1.566,0.855,1.312*02
$GPGSV,5,1,20,4,5,,,5,45,184,36,7,2,59,,8,,23,*42
$GPGSV,5,2,20,13,74,350,31,15,47,302,50,18,6,321,,20,50,279,38*45
$GPGSV,5,3,20,21,10,299,36,24,17,247,22,28,47,75,38,30,26,57,37*78
$GPGSV,5,4,20,67,41,139,26,68,78,333,28,69,25,322,,77,39,35,37*4A
$GPGSV,5,5,20,78,85,253,30,79,38,220,25,85,3,339,,86,1,28,*4E
$GPRMC,134946.00,A,4321.9707,N,00313.1473,W,28.257,248.443,230118,,E,A*37
$GPGGA,134947.00,4321.9681,N,00313.1572,W,1,13,0.847,71.390,M,,M,0,*6B
$GPGSA,A,3,5,13,15,20,21,24,28,30,67,68,77,78,1.473,0.847,1.205*03
$GPGSV,5,1,19,5,45,184,37,7,2,59,,8,,23,,13,74,350,35*79
$GPGSV,5,2,19,15,47,302,48,18,6,321,,20,50,279,38,21,10,299,33*43
$GPGSV,5,3,19,24,17,247,24,28,47,75,35,30,26,57,37,67,41,139,31*71
$GPGSV,5,4,19,68,78,333,32,69,25,322,,77,39,35,37,78,85,253,27*43
$GPGSV,5,5,19,79,38,220,32,85,3,339,,86,1,28,*77
$GPRMC,134947.00,A,4321.9681,N,00313.1572,W,28.047,250.561,230118,,E,A*32
$GPGGA,134948.00,4321.9659,N,00313.1672,W,1,13,0.847,71.343,M,,M,0,*6C
$GPGSA,A,3,5,13,15,20,21,24,28,30,67,68,77,78,1.473,0.847,1.204*02
$GPGSV,5,1,19,5,45,184,36,7,2,59,,8,,23,,13,74,350,35*78
$GPGSV,5,2,19,15,47,302,50,18,6,321,,20,50,279,37,21,10,299,32*44
$GPGSV,5,3,19,24,17,247,21,28,47,75,35,30,26,57,36,67,41,139,31*75
$GPGSV,5,4,19,68,78,333,32,69,25,322,,77,39,35,38,78,85,253,26*4D
$GPGSV,5,5,19,79,38,220,31,85,3,339,,86,1,28,*74
$GPRMC,134948.00,A,4321.9659,N,00313.1672,W,27.575,253.049,230118,,E,A*3C
$GPGGA,134949.00,4321.9640,N,00313.1770,W,1,13,0.847,71.177,M,,M,0,*63
$GPGSA,A,3,5,13,15,20,21,24,28,30,67,68,77,78,1.472,0.847,1.204*03
$GPGSV,5,1,19,5,45,184,38,7,2,59,,8,,23,,13,74,350,33*70
$GPGSV,5,2,19,15,47,302,47,18,6,321,,20,50,279,34,21,10,299,32*41
$GPGSV,5,3,19,24,17,247,25,28,47,75,34,30,26,57,37,67,41,139,32*72
$GPGSV,5,4,19,68,78,333,28,69,25,322,,77,39,35,37,78,85,253,28*47
$GPGSV,5,5,19,79,38,220,31,85,3,339,,86,1,28,*74
$GPRMC,134949.00,A,4321.9640,N,00313.1770,W,26.222,254.645,230118,,E,A*3F
$GPGGA,134950.00,4321.9623,N,00313.1861,W,1,13,0.847,71.196,M,,M,0,*6E
$GPGSA,A,3,5,13,15,20,21,24,28,30,67,68,77,78,1.472,0.847,1.204*03
$GPGSV,5,1,19,5,45,184,38,7,2,59,,8,,23,,13,74,350,34*77
$GPGSV,5,2,19,15,47,302,45,18,6,321,,20,50,279,32,21,10,299,23*45
$GPGSV,5,3,19,24,17,247,18,28,47,75,33,30,26,57,34,67,41,139,35*7F
$GPGSV,5,4,19,68,78,333,29,69,25,322,,77,39,35,37,78,85,254,30*48
$GPGSV,5,5,19,79,38,220,32,85,3,339,,86,1,28,*77
$GPRMC,134950.00,A,4321.9623,N,00313.1861,W,24.031,254.708,230118,,E,A*37
$GPGGA,134951.00,4321.9608,N,00313.1946,W,1,13,0.847,71.175,M,,M,0,*6F
$GPGSA,A,3,5,13,15,20,21,24,28,30,67,68,77,78,1.472,0.847,1.204*03
$GPGSV,5,1,19,5,45,184,31,7,2,59,,8,,23,,13,74,350,34*7E
$GPGSV,5,2,19,15,47,302,38,18,6,321,,20,50,279,24,21,10,299,23*48
$GPGSV,5,3,19,24,17,247,19,28,47,75,34,30,26,57,36,67,41,139,30*7E
$GPGSV,5,4,19,68,78,333,25,69,25,322,,77,39,35,36,78,85,254,25*41
$GPGSV,5,5,19,79,38,220,26,85,3,339,,86,1,28,*72
$GPRMC,134951.00,A,4321.9608,N,00313.1946,W,22.008,256.277,230118,,E,A*38
$GPGGA,134952.00,4321.9595,N,00313.2026,W,1,8,1.180,71.168,M,,M,0,*52
$GPGSA,A,3,5,13,15,20,24,28,30,77,,,,,2.196,1.180,1.852*06
$GPGSV,5,1,19,5,45,184,24,7,2,59,,8,,23,,13,74,350,27*78
$GPGSV,5,2,19,15,47,302,33,18,6,321,,20,50,279,24,21,10,299,12*41
$GPGSV,5,3,19,24,17,247,22,28,47,75,26,30,26,57,34,67,41,139,23*75
$GPGSV,5,4,19,68,78,333,19,69,25,322,,77,39,35,29,78,85,254,18*4E
$GPGSV,5,5,19,79,38,220,21,85,3,339,,86,1,28,*75
$GPRMC,134952.00,A,4321.9595,N,00313.2026,W,20.509,256.490,230118,,E,A*39
$GPGGA,134953.00,4321.9584,N,00313.2103,W,1,9,1.019,71.359,M,,M,0,*55
$GPGSA,A,3,5,13,15,20,21,24,28,30,79,,,,1.813,1.019,1.499*06
$GPGSV,5,1,19,5,45,184,32,7,2,59,,8,,23,,13,74,350,20*78
$GPGSV,5,2,19,15,47,302,45,18,7,321,,20,50,279,32,21,10,299,18*4C
$GPGSV,5,3,19,24,17,247,22,28,47,75,24,30,26,57,27,67,41,139,15*70
$GPGSV,5,4,19,68,78,333,15,69,25,322,,77,39,35,19,78,85,254,22*48
$GPGSV,5,5,19,79,38,220,30,85,3,339,,86,1,28,*75
$GPRMC,134953.00,A,4321.9584,N,00313.2103,W,17.069,251.682,230118,,E,A*3F
$GPGGA,134954.00,4321.9576,N,00313.2167,W,1,12,0.899,70.589,M,,M,0,*6C
$GPGSA,A,3,5,13,15,20,21,24,28,30,67,68,78,79,1.508,0.899,1.211*06
$GPGSV,5,1,19,5,45,184,36,7,2,59,,8,,23,,13,74,350,32*7F
